,external_id,station_id,short_name,eightd_has_key_dispenser,legacy_id,electric_bike_surcharge_waiver,capacity,has_kiosk,rental_methods,name,lon,rental_uris,lat,station_type,eightd_station_services,region_id,region_code,address,dockless_bikes_parking_zone_capacity,rack_model,client_station_id,target_bike_capacity,target_scooter_capacity
0,a3b1c47b-a135-11e9-9cda-0a87ae2ba916,a3b1c47b-a135-11e9-9cda-0a87ae2ba916,16915,False,541,False,11,True,"['KEY', 'CREDITCARD', 'TRANSITCARD']",Central Ave & Harrison St,-87.764499,"{'ios': 'https://chi.lft.to/lastmile_qr_scan', 'android': 'https://chi.lft.to/lastmile_qr_scan'}",41.872993,classic,[],,,,,,,,
1,a3b2d2b7-a135-11e9-9cda-0a87ae2ba916,a3b2d2b7-a135-11e9-9cda-0a87ae2ba916,593,False,593,False,11,True,"['KEY', 'CREDITCARD', 'TRANSITCARD']",Halsted St & 59th St,-87.644874,"{'ios': 'https://chi.lft.to/lastmile_qr_scan', 'android': 'https://chi.lft.to/lastmile_qr_scan'}",41.787539,classic,[],,,,,,,,
2,a3b20960-a135-11e9-9cda-0a87ae2ba916,a3b20960-a135-11e9-9cda-0a87ae2ba916,554,False,554,False,7,True,"['KEY', 'CREDITCARD', 'TRANSITCARD']",Damen Ave & 51st St,-87.674684,"{'ios': 'https://chi.lft.to/lastmile_qr_scan', 'android': 'https://chi.lft.to/lastmile_qr_scan'}",41.800908,classic,[],,,,,,,,
3,a3a5f5e6-a135-11e9-9cda-0a87ae2ba916,a3a5f5e6-a135-11e9-9cda-0a87ae2ba916,13162,False,135,False,11,True,"['KEY', 'CREDITCARD', 'TRANSITCARD']",Halsted St & 21st St,-87.6466029882431,"{'ios': 'https://chi.lft.to/lastmile_qr_scan', 'android': 'https://chi.lft.to/lastmile_qr_scan'}",41.85377981072743,classic,[],,,,,,,,
4,a3a795d7-a135-11e9-9cda-0a87ae2ba916,a3a795d7-a135-11e9-9cda-0a87ae2ba916,13036,False,197,False,19,True,"['KEY', 'CREDITCARD', 'TRANSITCARD']",Michigan Ave & Madison St,-87.625125,"{'ios': 'https://chi.lft.to/lastmile_qr_scan', 'android': 'https://chi.lft.to/lastmile_qr_scan'}",41.882134,classic,[],,,,,,,,
5,a3ad2d57-a135-11e9-9cda-0a87ae2ba916,a3ad2d57-a135-11e9-9cda-0a87ae2ba916,15449,False,407,False,11,True,"['KEY', 'CREDITCARD', 'TRANSITCARD']",State St & Pershing Rd,-87.6265680185,"{'ios': 'https://chi.lft.to/lastmile_qr_scan', 'android': 'https://chi.lft.to/lastmile_qr_scan'}",41.82301523798,classic,[],,,,,,,,
6,a3b419d9-a135-11e9-9cda-0a87ae2ba916,a3b419d9-a135-11e9-9cda-0a87ae2ba916,637,False,637,False,15,True,"['KEY', 'CREDITCARD', 'TRANSITCARD']",Wood St & Chicago Ave,-87.672069,"{'ios': 'https://chi.lft.to/lastmile_qr_scan', 'android': 'https://chi.lft.to/lastmile_qr_scan'}",41.895634,classic,[],,,,,,,,
7,a3a75d8a-a135-11e9-9cda-0a87ae2ba916,a3a75d8a-a135-11e9-9cda-0a87ae2ba916,TA1307000129,False,184,False,19,True,"['KEY', 'CREDITCARD', 'TRANSITCARD']",State St & 35th St,-87.62679755687714,"{'ios': 'https://chi.lft.to/lastmile_qr_scan', 'android': 'https://chi.lft.to/lastmile_qr_scan'}",41.8310363140161,classic,[],,,,,,,,
8,a21de1a5-f5bc-4b50-8a13-aa28b7dcfa95,a21de1a5-f5bc-4b50-8a13-aa28b7dcfa95,20105,False,700,False,15,True,"['KEY', 'CREDITCARD', 'TRANSITCARD']",Halsted St & 96th St,-87.6430195569992,"{'ios': 'https://chi.lft.to/lastmile_qr_scan', 'android': 'https://chi.lft.to/lastmile_qr_scan'}",41.719712183618824,classic,[],,,,,,,,
9,a3a3e67b-a135-11e9-9cda-0a87ae2ba916,a3a3e67b-a135-11e9-9cda-0a87ae2ba916,TA1306000013,False,26,False,31,True,"['KEY', 'CREDITCARD', 'TRANSITCARD']",New St & Illinois St,-87.61861681938171,"{'ios': 'https://chi.lft.to/lastmile_qr_scan', 'android': 'https://chi.lft.to/lastmile_qr_scan'}",41.890847040623804,classic,[],,,,,,,,
10,a3acb1de-a135-11e9-9cda-0a87ae2ba916,a3acb1de-a135-11e9-9cda-0a87ae2ba916,15666,False,378,False,11,True,"['KEY', 'CREDITCARD', 'TRANSITCARD']",California Ave & Lake St,-87.6962981368,"{'ios': 'https://chi.lft.to/lastmile_qr_scan', 'android': 'https://chi.lft.to/lastmile_qr_scan'}",41.88445395657,classic,[],,,,,,,,
11,a3b29fae-a135-11e9-9cda-0a87ae2ba916,a3b29fae-a135-11e9-9cda-0a87ae2ba916,583,False,583,False,11,True,"['KEY', 'CREDITCARD', 'TRANSITCARD']",Stony Island Ave & 82nd St,-87.586005,"{'ios': 'https://chi.lft.to/lastmile_qr_scan', 'android': 'https://chi.lft.to/lastmile_qr_scan'}",41.746559,classic,[],,,,,,,,
12,a3b2862e-a135-11e9-9cda-0a87ae2ba916,a3b2862e-a135-11e9-9cda-0a87ae2ba916,16970,False,578,False,11,True,"['KEY', 'CREDITCARD', 'TRANSITCARD']",Bennett Ave & 79th St,-87.578496,"{'ios': 'https://chi.lft.to/lastmile_qr_scan', 'android': 'https://chi.lft.to/lastmile_qr_scan'}",41.751785,classic,[],,,,,,,,
13,a3a52df5-a135-11e9-9cda-0a87ae2ba916,a3a52df5-a135-11e9-9cda-0a87ae2ba916,15535,False,96,False,23,True,"['KEY', 'CREDITCARD', 'TRANSITCARD']",Desplaines St & Randolph St,-87.6445705849,"{'ios': 'https://chi.lft.to/lastmile_qr_scan', 'android': 'https://chi.lft.to/lastmile_qr_scan'}",41.88461618962,classic,[],,,,,,,,
14,a3ac1607-a135-11e9-9cda-0a87ae2ba916,a3ac1607-a135-11e9-9cda-0a87ae2ba916,13353,False,346,False,15,True,"['KEY', 'CREDITCARD', 'TRANSITCARD']",Ada St & Washington Blvd,-87.661206,"{'ios': 'https://chi.lft.to/lastmile_qr_scan', 'android': 'https://chi.lft.to/lastmile_qr_scan'}",41.88283,classic,[],,,,,,,,
15,a3a9c5f7-a135-11e9-9cda-0a87ae2ba916,a3a9c5f7-a135-11e9-9cda-0a87ae2ba916,TA1309000003,False,281,False,7,True,"['KEY', 'CREDITCARD', 'TRANSITCARD']",Western Ave & 24th St,-87.685109,"{'ios': 'https://chi.lft.to/lastmile_qr_scan', 'android': 'https://chi.lft.to/lastmile_qr_scan'}",41.84847,classic,[],,,,,,,,
16,a3aaa68b-a135-11e9-9cda-0a87ae2ba916,a3aaa68b-a135-11e9-9cda-0a87ae2ba916,TA1309000041,False,323,False,19,True,"['KEY', 'CREDITCARD', 'TRANSITCARD']",Sheridan Rd & Lawrence Ave,-87.654691,"{'ios': 'https://chi.lft.to/lastmile_qr_scan', 'android': 'https://chi.lft.to/lastmile_qr_scan'}",41.969517,classic,[],,,,,,,,
17,a3a62aad-a135-11e9-9cda-0a87ae2ba916,a3a62aad-a135-11e9-9cda-0a87ae2ba916,13206,False,146,False,19,True,"['KEY', 'CREDITCARD', 'TRANSITCARD']",Loomis St & Jackson Blvd,-87.662007,"{'ios': 'https://chi.lft.to/lastmile_qr_scan', 'android': 'https://chi.lft.to/lastmile_qr_scan'}",41.877945,classic,[],,,,,,,,
18,a3a62fc9-a135-11e9-9cda-0a87ae2ba916,a3a62fc9-a135-11e9-9cda-0a87ae2ba916,TA1307000005,False,147,False,15,True,"['KEY', 'CREDITCARD', 'TRANSITCARD']",Indiana Ave & 26th St,-87.622481,"{'ios': 'https://chi.lft.to/lastmile_qr_scan', 'android': 'https://chi.lft.to/lastmile_qr_scan'}",41.845687,classic,[],,,,,,,,
19,a3a83ba1-a135-11e9-9cda-0a87ae2ba916,a3a83ba1-a135-11e9-9cda-0a87ae2ba916,TA1307000138,False,230,False,19,True,"['KEY', 'CREDITCARD', 'TRANSITCARD']",Wood St & Webster Ave,-87.67279744148254,"{'ios': 'https://chi.lft.to/lastmile_qr_scan', 'android': 'https://chi.lft.to/lastmile_qr_scan'}",41.92105672992757,classic,[],,,,,,,,
20,a3a8855c-a135-11e9-9cda-0a87ae2ba916,a3a8855c-a135-11e9-9cda-0a87ae2ba916,13389,False,245,False,23,True,"['KEY', 'CREDITCARD', 'TRANSITCARD']",Clarendon Ave & Junior Ter,-87.649603,"{'ios': 'https://chi.lft.to/lastmile_qr_scan', 'android': 'https://chi.lft.to/lastmile_qr_scan'}",41.961004,classic,[],,,,,,,,
21,a3b11480-a135-11e9-9cda-0a87ae2ba916,a3b11480-a135-11e9-9cda-0a87ae2ba916,530,False,530,False,11,True,"['KEY', 'CREDITCARD', 'TRANSITCARD']",Laramie Ave & Kinzie St,-87.755527,"{'ios': 'https://chi.lft.to/lastmile_qr_scan', 'android': 'https://chi.lft.to/lastmile_qr_scan'}",41.887832,classic,[],,,,,,,,
22,a3b13836-a135-11e9-9cda-0a87ae2ba916,a3b13836-a135-11e9-9cda-0a87ae2ba916,537,False,537,False,11,True,"['KEY', 'CREDITCARD', 'TRANSITCARD']",Kenton Ave & Madison St,-87.741018,"{'ios': 'https://chi.lft.to/lastmile_qr_scan', 'android': 'https://chi.lft.to/lastmile_qr_scan'}",41.880708,classic,[],,,,,,,,
23,a3ad8072-a135-11e9-9cda-0a87ae2ba916,a3ad8072-a135-11e9-9cda-0a87ae2ba916,KA1503000071,False,423,False,31,True,"['KEY', 'CREDITCARD', 'TRANSITCARD']",University Ave & 57th St,-87.599861,"{'ios': 'https://chi.lft.to/lastmile_qr_scan', 'android': 'https://chi.lft.to/lastmile_qr_scan'}",41.791478,classic,[],,,,,,,,
24,a3ad4d1b-a135-11e9-9cda-0a87ae2ba916,a3ad4d1b-a135-11e9-9cda-0a87ae2ba916,KA1503000065,False,413,False,15,True,"['KEY', 'CREDITCARD', 'TRANSITCARD']",Woodlawn Ave & Lake Park Ave,-87.5970051479,"{'ios': 'https://chi.lft.to/lastmile_qr_scan', 'android': 'https://chi.lft.to/lastmile_qr_scan'}",41.81409271048,classic,[],,,,,,,,
25,a3a59ec3-a135-11e9-9cda-0a87ae2ba916,a3a59ec3-a135-11e9-9cda-0a87ae2ba916,13073,False,119,False,19,True,"['KEY', 'CREDITCARD', 'TRANSITCARD']",Ashland Ave & Lake St,-87.66717,"{'ios': 'https://chi.lft.to/lastmile_qr_scan', 'android': 'https://chi.lft.to/lastmile_qr_scan'}",41.88592,classic,[],,,,,,,,
26,f0f9f5dc-3d3f-4a32-aa3e-b87566e44de9,f0f9f5dc-3d3f-4a32-aa3e-b87566e44de9,20103,False,684,False,15,True,"['KEY', 'CREDITCARD', 'TRANSITCARD']",Prospect Sq & 91st St,-87.6675239,"{'ios': 'https://chi.lft.to/lastmile_qr_scan', 'android': 'https://chi.lft.to/lastmile_qr_scan'}",41.7282338,classic,[],,,,,,,,
27,a3a7f0ba-a135-11e9-9cda-0a87ae2ba916,a3a7f0ba-a135-11e9-9cda-0a87ae2ba916,13134,False,215,False,15,True,"['KEY', 'CREDITCARD', 'TRANSITCARD']",Damen Ave & Madison St,-87.67493,"{'ios': 'https://chi.lft.to/lastmile_qr_scan', 'android': 'https://chi.lft.to/lastmile_qr_scan'}",41.88137,classic,[],,,,,,,,
28,a3a528d0-a135-11e9-9cda-0a87ae2ba916,a3a528d0-a135-11e9-9cda-0a87ae2ba916,KA1503000021,False,95,False,11,True,"['KEY', 'CREDITCARD', 'TRANSITCARD']",Stony Island Ave & 64th St,-87.586647,"{'ios': 'https://chi.lft.to/lastmile_qr_scan', 'android': 'https://chi.lft.to/lastmile_qr_scan'}",41.778881,classic,[],,,,,,,,
29,a3b1d532-a135-11e9-9cda-0a87ae2ba916,a3b1d532-a135-11e9-9cda-0a87ae2ba916,16918,False,544,False,11,True,"['KEY', 'CREDITCARD', 'TRANSITCARD']",Austin Blvd & Madison St,-87.774453,"{'ios': 'https://chi.lft.to/lastmile_qr_scan', 'android': 'https://chi.lft.to/lastmile_qr_scan'}",41.880281,classic,[],,,,,,,,
30,a3ac7e9a-a135-11e9-9cda-0a87ae2ba916,a3ac7e9a-a135-11e9-9cda-0a87ae2ba916,15446,False,367,False,15,True,"['KEY', 'CREDITCARD', 'TRANSITCARD']",Racine Ave & 35th St,-87.65621066093445,"{'ios': 'https://chi.lft.to/lastmile_qr_scan', 'android': 'https://chi.lft.to/lastmile_qr_scan'}",41.83068856472101,classic,[],,,,,,,,
31,e63300bd-4ca3-4255-adfd-522289d68b8a,e63300bd-4ca3-4255-adfd-522289d68b8a,20121,False,687,False,15,True,"['KEY', 'CREDITCARD', 'TRANSITCARD']",Loomis Blvd & 84th St,-87.65841007232666,"{'ios': 'https://chi.lft.to/lastmile_qr_scan', 'android': 'https://chi.lft.to/lastmile_qr_scan'}",41.741486528618054,classic,[],,,,,,,,
32,a3b0fae6-a135-11e9-9cda-0a87ae2ba916,a3b0fae6-a135-11e9-9cda-0a87ae2ba916,525,False,525,False,15,True,"['KEY', 'CREDITCARD', 'TRANSITCARD']",Glenwood Ave & Touhy Ave,-87.666058,"{'ios': 'https://chi.lft.to/lastmile_qr_scan', 'android': 'https://chi.lft.to/lastmile_qr_scan'}",42.012701,classic,[],,,,,,,,
33,a3aa0bb7-a135-11e9-9cda-0a87ae2ba916,a3aa0bb7-a135-11e9-9cda-0a87ae2ba916,13109,False,294,False,15,True,"['KEY', 'CREDITCARD', 'TRANSITCARD']",Broadway & Berwyn Ave,-87.659753,"{'ios': 'https://chi.lft.to/lastmile_qr_scan', 'android': 'https://chi.lft.to/lastmile_qr_scan'}",41.978353,classic,[],,,,,,,,
34,759171ce-f355-4740-948d-e14bb8f7dc0e,759171ce-f355-4740-948d-e14bb8f7dc0e,20214,False,704,False,15,True,"['KEY', 'CREDITCARD', 'TRANSITCARD']",Avenue O & 134th St,-87.53967136144637,"{'ios': 'https://chi.lft.to/lastmile_qr_scan', 'android': 'https://chi.lft.to/lastmile_qr_scan'}",41.65186780228521,classic,[],,,,,,,,
35,a3af9a83-a135-11e9-9cda-0a87ae2ba916,a3af9a83-a135-11e9-9cda-0a87ae2ba916,KA1504000097,False,479,False,15,True,"['KEY', 'CREDITCARD', 'TRANSITCARD']",Drake Ave & Montrose Ave,-87.7165690733,"{'ios': 'https://chi.lft.to/lastmile_qr_scan', 'android': 'https://chi.lft.to/lastmile_qr_scan'}",41.96115407569,classic,[],,,,,,,,
36,a3a3b202-a135-11e9-9cda-0a87ae2ba916,a3a3b202-a135-11e9-9cda-0a87ae2ba916,TA1305000037,False,16,False,15,True,"['KEY', 'CREDITCARD', 'TRANSITCARD']",Paulina Ave & North Ave,-87.66993016004562,"{'ios': 'https://chi.lft.to/lastmile_qr_scan', 'android': 'https://chi.lft.to/lastmile_qr_scan'}",41.90985465216731,classic,[],,,,,,,,
37,da9e6779-5056-4d45-bae3-9dc325ed2807,da9e6779-5056-4d45-bae3-9dc325ed2807,20108,False,723,False,11,True,"['KEY', 'CREDITCARD', 'TRANSITCARD']",Hale Ave & 107th St,-87.66891896724701,"{'ios': 'https://chi.lft.to/lastmile_qr_scan', 'android': 'https://chi.lft.to/lastmile_qr_scan'}",41.699206168127674,classic,[],,,,,,,,
38,a3ad7636-a135-11e9-9cda-0a87ae2ba916,a3ad7636-a135-11e9-9cda-0a87ae2ba916,KA1503000073,False,421,False,11,True,"['KEY', 'CREDITCARD', 'TRANSITCARD']",MLK Jr Dr & 56th St,-87.6158532619,"{'ios': 'https://chi.lft.to/lastmile_qr_scan', 'android': 'https://chi.lft.to/lastmile_qr_scan'}",41.79342945658,classic,[],,,,,,,,
39,a3b22d3d-a135-11e9-9cda-0a87ae2ba916,a3b22d3d-a135-11e9-9cda-0a87ae2ba916,561,False,561,False,11,True,"['KEY', 'CREDITCARD', 'TRANSITCARD']",Damen Ave & 59th St,-87.67414391040802,"{'ios': 'https://chi.lft.to/lastmile_qr_scan', 'android': 'https://chi.lft.to/lastmile_qr_scan'}",41.785861065132,classic,[],,,,,,,,
40,a3af2c5f-a135-11e9-9cda-0a87ae2ba916,a3af2c5f-a135-11e9-9cda-0a87ae2ba916,15575,False,458,False,19,True,"['KEY', 'CREDITCARD', 'TRANSITCARD']",Broadway & Thorndale Ave,-87.6601406209,"{'ios': 'https://chi.lft.to/lastmile_qr_scan', 'android': 'https://chi.lft.to/lastmile_qr_scan'}",41.98974251144,classic,[],,,,,,,,
41,a3af2737-a135-11e9-9cda-0a87ae2ba916,a3af2737-a135-11e9-9cda-0a87ae2ba916,KA1504000148,False,457,False,15,True,"['KEY', 'CREDITCARD', 'TRANSITCARD']",Clark St & Elmdale Ave,-87.66972362995148,"{'ios': 'https://chi.lft.to/lastmile_qr_scan', 'android': 'https://chi.lft.to/lastmile_qr_scan'}",41.990860448125574,classic,[],,,,,,,,
42,a3b2d7d9-a135-11e9-9cda-0a87ae2ba916,a3b2d7d9-a135-11e9-9cda-0a87ae2ba916,594,False,594,False,11,True,"['KEY', 'CREDITCARD', 'TRANSITCARD']",Western Blvd & 48th Pl,-87.683392,"{'ios': 'https://chi.lft.to/lastmile_qr_scan', 'android': 'https://chi.lft.to/lastmile_qr_scan'}",41.805661,classic,[],,,,,,,,
43,a3a5700b-a135-11e9-9cda-0a87ae2ba916,a3a5700b-a135-11e9-9cda-0a87ae2ba916,13045,False,110,False,27,True,"['KEY', 'CREDITCARD', 'TRANSITCARD']",Dearborn St & Erie St,-87.629318,"{'ios': 'https://chi.lft.to/lastmile_qr_scan', 'android': 'https://chi.lft.to/lastmile_qr_scan'}",41.893992,classic,[],,,,,,,,
44,a3b01a86-a135-11e9-9cda-0a87ae2ba916,a3b01a86-a135-11e9-9cda-0a87ae2ba916,15648,False,504,False,15,True,"['KEY', 'CREDITCARD', 'TRANSITCARD']",Campbell Ave & Fullerton Ave,-87.6893070063,"{'ios': 'https://chi.lft.to/lastmile_qr_scan', 'android': 'https://chi.lft.to/lastmile_qr_scan'}",41.92463247165,classic,[],,,,,,,,
45,a3a96aca-a135-11e9-9cda-0a87ae2ba916,a3a96aca-a135-11e9-9cda-0a87ae2ba916,TA1307000161,False,262,False,11,True,"['KEY', 'CREDITCARD', 'TRANSITCARD']",Halsted St & 37th St,-87.64572,"{'ios': 'https://chi.lft.to/lastmile_qr_scan', 'android': 'https://chi.lft.to/lastmile_qr_scan'}",41.827059,classic,[],,,,,,,,
46,a3a9b1d7-a135-11e9-9cda-0a87ae2ba916,a3a9b1d7-a135-11e9-9cda-0a87ae2ba916,13434,False,277,False,15,True,"['KEY', 'CREDITCARD', 'TRANSITCARD']",Ashland Ave & Grand Ave,-87.666611,"{'ios': 'https://chi.lft.to/lastmile_qr_scan', 'android': 'https://chi.lft.to/lastmile_qr_scan'}",41.891072,classic,[],,,,,,,,
47,a3a614ad-a135-11e9-9cda-0a87ae2ba916,a3a614ad-a135-11e9-9cda-0a87ae2ba916,KA1503000041,False,142,False,31,True,"['KEY', 'CREDITCARD', 'TRANSITCARD']",McClurg Ct & Erie St,-87.617854,"{'ios': 'https://chi.lft.to/lastmile_qr_scan', 'android': 'https://chi.lft.to/lastmile_qr_scan'}",41.894503,classic,[],,,,,,,,
48,a3ac30c5-a135-11e9-9cda-0a87ae2ba916,a3ac30c5-a135-11e9-9cda-0a87ae2ba916,TA1309000067,False,351,False,15,True,"['KEY', 'CREDITCARD', 'TRANSITCARD']",Cottage Grove Ave & 51st St,-87.606615,"{'ios': 'https://chi.lft.to/lastmile_qr_scan', 'android': 'https://chi.lft.to/lastmile_qr_scan'}",41.803038,classic,[],,,,,,,,
49,a3b23cb8-a135-11e9-9cda-0a87ae2ba916,a3b23cb8-a135-11e9-9cda-0a87ae2ba916,564,False,564,False,11,True,"['KEY', 'CREDITCARD', 'TRANSITCARD']",Racine Ave & 65th St,-87.654308,"{'ios': 'https://chi.lft.to/lastmile_qr_scan', 'android': 'https://chi.lft.to/lastmile_qr_scan'}",41.775393,classic,[],,,,,,,,
50,a3afd7ab-a135-11e9-9cda-0a87ae2ba916,a3afd7ab-a135-11e9-9cda-0a87ae2ba916,15632,False,491,False,15,True,"['KEY', 'CREDITCARD', 'TRANSITCARD']",Talman Ave & Addison St,-87.694614758,"{'ios': 'https://chi.lft.to/lastmile_qr_scan', 'android': 'https://chi.lft.to/lastmile_qr_scan'}",41.9466358306,classic,[],,,,,,,,
51,a3a5de24-a135-11e9-9cda-0a87ae2ba916,a3a5de24-a135-11e9-9cda-0a87ae2ba916,TA1309000042,False,131,False,15,True,"['KEY', 'CREDITCARD', 'TRANSITCARD']",Lincoln Ave & Belmont Ave (Temp),-87.6711143553257,"{'ios': 'https://chi.lft.to/lastmile_qr_scan', 'android': 'https://chi.lft.to/lastmile_qr_scan'}",41.93953161982257,classic,[],,,,,,,,
52,ff21c158-de98-46c6-9ef7-7082bdb7c634,ff21c158-de98-46c6-9ef7-7082bdb7c634,20215,False,732,False,15,True,"['KEY', 'CREDITCARD', 'TRANSITCARD']",Hegewisch Metra Station,-87.54608988761902,"{'ios': 'https://chi.lft.to/lastmile_qr_scan', 'android': 'https://chi.lft.to/lastmile_qr_scan'}",41.64850076266409,classic,[],,,,,,,,
53,a3a48d5c-a135-11e9-9cda-0a87ae2ba916,a3a48d5c-a135-11e9-9cda-0a87ae2ba916,TA1305000039,False,58,False,23,True,"['KEY', 'CREDITCARD', 'TRANSITCARD']",Elston Ave & Cortland St,-87.66674637794495,"{'ios': 'https://chi.lft.to/lastmile_qr_scan', 'android': 'https://chi.lft.to/lastmile_qr_scan'}",41.91643342912655,classic,[],,,,,,,,
54,a3a79adb-a135-11e9-9cda-0a87ae2ba916,a3a79adb-a135-11e9-9cda-0a87ae2ba916,TA1307000120,False,198,False,27,True,"['KEY', 'CREDITCARD', 'TRANSITCARD']",Green St & Madison St,-87.64926373958588,"{'ios': 'https://chi.lft.to/lastmile_qr_scan', 'android': 'https://chi.lft.to/lastmile_qr_scan'}",41.881859328038225,classic,[],,,,,,,,
55,a3ad95a7-a135-11e9-9cda-0a87ae2ba916,a3ad95a7-a135-11e9-9cda-0a87ae2ba916,KA1503000054,False,427,False,15,True,"['KEY', 'CREDITCARD', 'TRANSITCARD']",Cottage Grove Ave & 63rd St,-87.6059702038765,"{'ios': 'https://chi.lft.to/lastmile_qr_scan', 'android': 'https://chi.lft.to/lastmile_qr_scan'}",41.78053094070882,classic,[],,,,,,,,
56,a3a97a01-a135-11e9-9cda-0a87ae2ba916,a3a97a01-a135-11e9-9cda-0a87ae2ba916,TA1308000038,False,265,False,15,True,"['KEY', 'CREDITCARD', 'TRANSITCARD']",Cottage Grove Ave & Oakwood Blvd,-87.6071,"{'ios': 'https://chi.lft.to/lastmile_qr_scan', 'android': 'https://chi.lft.to/lastmile_qr_scan'}",41.822985,classic,[],,,,,,,,
57,a3b48c07-a135-11e9-9cda-0a87ae2ba916,a3b48c07-a135-11e9-9cda-0a87ae2ba916,18058,False,659,False,19,True,"['KEY', 'CREDITCARD', 'TRANSITCARD']",Leavitt St & Chicago Ave,-87.682017,"{'ios': 'https://chi.lft.to/lastmile_qr_scan', 'android': 'https://chi.lft.to/lastmile_qr_scan'}",41.895501,classic,[],,,,,,,,
58,a60781db-2bec-4a15-a4a2-363297aefcec,a60781db-2bec-4a15-a4a2-363297aefcec,20244,False,678,False,15,True,"['KEY', 'CREDITCARD', 'TRANSITCARD']",Halsted St & 73rd St,-87.64416097666071,"{'ios': 'https://chi.lft.to/lastmile_qr_scan', 'android': 'https://chi.lft.to/lastmile_qr_scan'}",41.76160543804394,classic,[],,,,,,,,
59,a3acea44-a135-11e9-9cda-0a87ae2ba916,a3acea44-a135-11e9-9cda-0a87ae2ba916,15599,False,393,False,11,True,"['KEY', 'CREDITCARD', 'TRANSITCARD']",Calumet Ave & 71st St,-87.616917925,"{'ios': 'https://chi.lft.to/lastmile_qr_scan', 'android': 'https://chi.lft.to/lastmile_qr_scan'}",41.76550800581,classic,[],,,,,,,,
60,a3a62566-a135-11e9-9cda-0a87ae2ba916,a3a62566-a135-11e9-9cda-0a87ae2ba916,15529,False,145,False,19,True,"['KEY', 'CREDITCARD', 'TRANSITCARD']",Mies van der Rohe Way & Chestnut St,-87.6219152258,"{'ios': 'https://chi.lft.to/lastmile_qr_scan', 'android': 'https://chi.lft.to/lastmile_qr_scan'}",41.8985866514,classic,[],,,,,,,,
61,a3b477ac-a135-11e9-9cda-0a87ae2ba916,a3b477ac-a135-11e9-9cda-0a87ae2ba916,655,False,655,False,15,True,"['KEY', 'CREDITCARD', 'TRANSITCARD']",Hoyne Ave & Balmoral Ave,-87.681932,"{'ios': 'https://chi.lft.to/lastmile_qr_scan', 'android': 'https://chi.lft.to/lastmile_qr_scan'}",41.979851,classic,[],,,,,,,,
62,a3b13e66-a135-11e9-9cda-0a87ae2ba916,a3b13e66-a135-11e9-9cda-0a87ae2ba916,16912,False,538,False,11,True,"['KEY', 'CREDITCARD', 'TRANSITCARD']",Cicero Ave & Flournoy St,-87.746619,"{'ios': 'https://chi.lft.to/lastmile_qr_scan', 'android': 'https://chi.lft.to/lastmile_qr_scan'}",41.872131,classic,[],,,,,,,,
63,a3b481e1-a135-11e9-9cda-0a87ae2ba916,a3b481e1-a135-11e9-9cda-0a87ae2ba916,657,False,657,False,15,True,"['KEY', 'CREDITCARD', 'TRANSITCARD']",Wood St & Augusta Blvd,-87.6722,"{'ios': 'https://chi.lft.to/lastmile_qr_scan', 'android': 'https://chi.lft.to/lastmile_qr_scan'}",41.899181,classic,[],,,,,,,,
64,a3aa4017-a135-11e9-9cda-0a87ae2ba916,a3aa4017-a135-11e9-9cda-0a87ae2ba916,13325,False,304,False,15,True,"['KEY', 'CREDITCARD', 'TRANSITCARD']",Broadway & Waveland Ave,-87.648636,"{'ios': 'https://chi.lft.to/lastmile_qr_scan', 'android': 'https://chi.lft.to/lastmile_qr_scan'}",41.949074,classic,[],,,,,,,,
65,a3af460f-a135-11e9-9cda-0a87ae2ba916,a3af460f-a135-11e9-9cda-0a87ae2ba916,KA1504000146,False,463,False,19,True,"['KEY', 'CREDITCARD', 'TRANSITCARD']",Clark St & Berwyn Ave,-87.66856491565704,"{'ios': 'https://chi.lft.to/lastmile_qr_scan', 'android': 'https://chi.lft.to/lastmile_qr_scan'}",41.978030622486564,classic,[],,,,,,,,
66,a3b47cbc-a135-11e9-9cda-0a87ae2ba916,a3b47cbc-a135-11e9-9cda-0a87ae2ba916,KA17018054,False,656,False,15,True,"['KEY', 'CREDITCARD', 'TRANSITCARD']",Damen Ave & Walnut (Lake) St,-87.677009,"{'ios': 'https://chi.lft.to/lastmile_qr_scan', 'android': 'https://chi.lft.to/lastmile_qr_scan'}",41.885951,classic,[],,,,,,,,
67,a3a4ac3f-a135-11e9-9cda-0a87ae2ba916,a3a4ac3f-a135-11e9-9cda-0a87ae2ba916,TA1306000016,False,67,False,27,True,"['KEY', 'CREDITCARD', 'TRANSITCARD']",Sheffield Ave & Fullerton Ave,-87.6537080423,"{'ios': 'https://chi.lft.to/lastmile_qr_scan', 'android': 'https://chi.lft.to/lastmile_qr_scan'}",41.9256018819,classic,[],,,,,,,,
68,a3ad13e4-a135-11e9-9cda-0a87ae2ba916,a3ad13e4-a135-11e9-9cda-0a87ae2ba916,15443,False,401,False,11,True,"['KEY', 'CREDITCARD', 'TRANSITCARD']",Shields Ave & 28th Pl,-87.635491,"{'ios': 'https://chi.lft.to/lastmile_qr_scan', 'android': 'https://chi.lft.to/lastmile_qr_scan'}",41.842733,classic,[],,,,,,,,
69,a3a497b6-a135-11e9-9cda-0a87ae2ba916,a3a497b6-a135-11e9-9cda-0a87ae2ba916,13058,False,60,False,19,True,"['KEY', 'CREDITCARD', 'TRANSITCARD']",Dayton St & North Ave,-87.6494219288,"{'ios': 'https://chi.lft.to/lastmile_qr_scan', 'android': 'https://chi.lft.to/lastmile_qr_scan'}",41.9105780349,classic,[],,,,,,,,
70,a3a859c4-a135-11e9-9cda-0a87ae2ba916,a3a859c4-a135-11e9-9cda-0a87ae2ba916,TA1307000139,False,237,False,19,True,"['KEY', 'CREDITCARD', 'TRANSITCARD']",MLK Jr Dr & 29th St,-87.617,"{'ios': 'https://chi.lft.to/lastmile_qr_scan', 'android': 'https://chi.lft.to/lastmile_qr_scan'}",41.842052,classic,[],,,,,,,,
71,a3b10a40-a135-11e9-9cda-0a87ae2ba916,a3b10a40-a135-11e9-9cda-0a87ae2ba916,528,False,528,False,11,True,"['KEY', 'CREDITCARD', 'TRANSITCARD']",Pulaski Rd & Lake St,-87.726491,"{'ios': 'https://chi.lft.to/lastmile_qr_scan', 'android': 'https://chi.lft.to/lastmile_qr_scan'}",41.885409,classic,[],,,,,,,,
72,a3b24701-a135-11e9-9cda-0a87ae2ba916,a3b24701-a135-11e9-9cda-0a87ae2ba916,16951,False,a3b24701-a135-11e9-9cda-0a87ae2ba916,False,11,True,"['KEY', 'CREDITCARD', 'TRANSITCARD']",Damen Ave & 74th St,-87.67363429069519,"{'ios': 'https://chi.lft.to/lastmile_qr_scan', 'android': 'https://chi.lft.to/lastmile_qr_scan'}",41.759274039331224,classic,[],,,,,,,,
73,a3b2be3a-a135-11e9-9cda-0a87ae2ba916,a3b2be3a-a135-11e9-9cda-0a87ae2ba916,16991,False,589,False,11,True,"['KEY', 'CREDITCARD', 'TRANSITCARD']",Milwaukee Ave & Cuyler Ave,-87.749594,"{'ios': 'https://chi.lft.to/lastmile_qr_scan', 'android': 'https://chi.lft.to/lastmile_qr_scan'}",41.954468,classic,[],,,,,,,,
74,a3a565b1-a135-11e9-9cda-0a87ae2ba916,a3a565b1-a135-11e9-9cda-0a87ae2ba916,TA1307000121,False,108,False,19,True,"['KEY', 'CREDITCARD', 'TRANSITCARD']",Halsted St & Polk St,-87.64664,"{'ios': 'https://chi.lft.to/lastmile_qr_scan', 'android': 'https://chi.lft.to/lastmile_qr_scan'}",41.87184,classic,[],,,,,,,,
75,a3b3915a-a135-11e9-9cda-0a87ae2ba916,a3b3915a-a135-11e9-9cda-0a87ae2ba916,631,False,631,False,19,True,"['KEY', 'CREDITCARD', 'TRANSITCARD']",Malcolm X College,-87.673895,"{'ios': 'https://chi.lft.to/lastmile_qr_scan', 'android': 'https://chi.lft.to/lastmile_qr_scan'}",41.877618,classic,[],,,,,,,,
76,a3a3a282-a135-11e9-9cda-0a87ae2ba916,a3a3a282-a135-11e9-9cda-0a87ae2ba916,TA1306000014,False,13,False,35,True,"['KEY', 'CREDITCARD', 'TRANSITCARD']",Wilton Ave & Diversey Pkwy,-87.652705,"{'ios': 'https://chi.lft.to/lastmile_qr_scan', 'android': 'https://chi.lft.to/lastmile_qr_scan'}",41.932418,classic,[],,,,,,,,
77,a3a965b2-a135-11e9-9cda-0a87ae2ba916,a3a965b2-a135-11e9-9cda-0a87ae2ba916,13080,False,261,False,15,True,"['KEY', 'CREDITCARD', 'TRANSITCARD']",Hermitage Ave & Polk St,-87.669886,"{'ios': 'https://chi.lft.to/lastmile_qr_scan', 'android': 'https://chi.lft.to/lastmile_qr_scan'}",41.871514,classic,[],,,,,,,,
78,a3ac3b03-a135-11e9-9cda-0a87ae2ba916,a3ac3b03-a135-11e9-9cda-0a87ae2ba916,RP-007,False,353,False,15,True,"['KEY', 'CREDITCARD', 'TRANSITCARD']",Clark St & Touhy Ave,-87.6743671152,"{'ios': 'https://chi.lft.to/lastmile_qr_scan', 'android': 'https://chi.lft.to/lastmile_qr_scan'}",42.01256011541,classic,[],,,,,,,,
79,a3af5d1c-a135-11e9-9cda-0a87ae2ba916,a3af5d1c-a135-11e9-9cda-0a87ae2ba916,RP-005,False,467,False,15,True,"['KEY', 'CREDITCARD', 'TRANSITCARD']",Western Ave & Lunt Ave,-87.6904922389,"{'ios': 'https://chi.lft.to/lastmile_qr_scan', 'android': 'https://chi.lft.to/lastmile_qr_scan'}",42.0085943972,classic,[],,,,,,,,
80,732c9f35-0c82-4128-acc3-2cf447298b1d,732c9f35-0c82-4128-acc3-2cf447298b1d,20208,False,715,False,15,True,"['KEY', 'CREDITCARD', 'TRANSITCARD']",Major Taylor Trail & 124th St,-87.63711333274841,"{'ios': 'https://chi.lft.to/lastmile_qr_scan', 'android': 'https://chi.lft.to/lastmile_qr_scan'}",41.66869635332246,classic,[],,,,,,,,
81,a3b00b3a-a135-11e9-9cda-0a87ae2ba916,a3b00b3a-a135-11e9-9cda-0a87ae2ba916,15645,False,501,False,15,True,"['KEY', 'CREDITCARD', 'TRANSITCARD']",Richmond St & Diversey Ave,-87.7011951301,"{'ios': 'https://chi.lft.to/lastmile_qr_scan', 'android': 'https://chi.lft.to/lastmile_qr_scan'}",41.93190196886,classic,[],,,,,,,,
82,a3ab86b6-a135-11e9-9cda-0a87ae2ba916,a3ab86b6-a135-11e9-9cda-0a87ae2ba916,TA1309000064,False,342,False,23,True,"['KEY', 'CREDITCARD', 'TRANSITCARD']",Wolcott Ave & Polk St,-87.673688,"{'ios': 'https://chi.lft.to/lastmile_qr_scan', 'android': 'https://chi.lft.to/lastmile_qr_scan'}",41.871262,classic,[],,,,,,,,
83,a3afd294-a135-11e9-9cda-0a87ae2ba916,a3afd294-a135-11e9-9cda-0a87ae2ba916,15631,False,490,False,15,True,"['KEY', 'CREDITCARD', 'TRANSITCARD']",Troy St & Elston Ave,-87.7066499009,"{'ios': 'https://chi.lft.to/lastmile_qr_scan', 'android': 'https://chi.lft.to/lastmile_qr_scan'}",41.94524356848,classic,[],,,,,,,,
84,a3af52bc-a135-11e9-9cda-0a87ae2ba916,a3af52bc-a135-11e9-9cda-0a87ae2ba916,KA1504000171,False,465,False,23,True,"['KEY', 'CREDITCARD', 'TRANSITCARD']",Marine Dr & Ainslie St,-87.650154,"{'ios': 'https://chi.lft.to/lastmile_qr_scan', 'android': 'https://chi.lft.to/lastmile_qr_scan'}",41.9716,classic,[],,,,,,,,
85,a3addda0-a135-11e9-9cda-0a87ae2ba916,a3addda0-a135-11e9-9cda-0a87ae2ba916,KA1504000086,False,441,False,11,True,"['KEY', 'CREDITCARD', 'TRANSITCARD']",Kedzie Ave & 24th St,-87.7054137458,"{'ios': 'https://chi.lft.to/lastmile_qr_scan', 'android': 'https://chi.lft.to/lastmile_qr_scan'}",41.84819094491,classic,[],,,,,,,,
86,a3ac7444-a135-11e9-9cda-0a87ae2ba916,a3ac7444-a135-11e9-9cda-0a87ae2ba916,KA1504000117,False,365,False,15,True,"['KEY', 'CREDITCARD', 'TRANSITCARD']",Halsted St & North Branch St,-87.64854490756989,"{'ios': 'https://chi.lft.to/lastmile_qr_scan', 'android': 'https://chi.lft.to/lastmile_qr_scan'}",41.89939028549696,classic,[],,,,,,,,
87,a3b148bf-a135-11e9-9cda-0a87ae2ba916,a3b148bf-a135-11e9-9cda-0a87ae2ba916,540,False,540,False,11,True,"['KEY', 'CREDITCARD', 'TRANSITCARD']",Laramie Ave & Madison St,-87.755337,"{'ios': 'https://chi.lft.to/lastmile_qr_scan', 'android': 'https://chi.lft.to/lastmile_qr_scan'}",41.880207,classic,[],,,,,,,,
88,a3af8123-a135-11e9-9cda-0a87ae2ba916,a3af8123-a135-11e9-9cda-0a87ae2ba916,15615,False,474,False,15,True,"['KEY', 'CREDITCARD', 'TRANSITCARD']",Christiana Ave & Lawrence Ave,-87.7118306675,"{'ios': 'https://chi.lft.to/lastmile_qr_scan', 'android': 'https://chi.lft.to/lastmile_qr_scan'}",41.96835449363,classic,[],,,,,,,,
89,a3a3b731-a135-11e9-9cda-0a87ae2ba916,a3a3b731-a135-11e9-9cda-0a87ae2ba916,TA1305000034,False,17,False,23,True,"['KEY', 'CREDITCARD', 'TRANSITCARD']",Honore St & Division St,-87.673935,"{'ios': 'https://chi.lft.to/lastmile_qr_scan', 'android': 'https://chi.lft.to/lastmile_qr_scan'}",41.903119,classic,[],,,,,,,,
90,a3a76cb6-a135-11e9-9cda-0a87ae2ba916,a3a76cb6-a135-11e9-9cda-0a87ae2ba916,TA1307000001,False,188,False,15,True,"['KEY', 'CREDITCARD', 'TRANSITCARD']",Greenview Ave & Fullerton Ave,-87.6658,"{'ios': 'https://chi.lft.to/lastmile_qr_scan', 'android': 'https://chi.lft.to/lastmile_qr_scan'}",41.92533,classic,[],,,,,,,,
91,a3a5a9d0-a135-11e9-9cda-0a87ae2ba916,a3a5a9d0-a135-11e9-9cda-0a87ae2ba916,13398,False,121,False,19,True,"['KEY', 'CREDITCARD', 'TRANSITCARD']",Blackstone Ave & Hyde Park Blvd,-87.590368,"{'ios': 'https://chi.lft.to/lastmile_qr_scan', 'android': 'https://chi.lft.to/lastmile_qr_scan'}",41.802562,classic,[],,,,,,,,
92,a3a3f0c6-a135-11e9-9cda-0a87ae2ba916,a3a3f0c6-a135-11e9-9cda-0a87ae2ba916,TA1306000007,False,28,False,15,True,"['KEY', 'CREDITCARD', 'TRANSITCARD']",Larrabee St & Menomonee St,-87.64332,"{'ios': 'https://chi.lft.to/lastmile_qr_scan', 'android': 'https://chi.lft.to/lastmile_qr_scan'}",41.91468,classic,[],,,,,,,,
93,a3a8999a-a135-11e9-9cda-0a87ae2ba916,a3a8999a-a135-11e9-9cda-0a87ae2ba916,TA1308000012,False,249,False,31,True,"['KEY', 'CREDITCARD', 'TRANSITCARD']",Montrose Harbor,-87.638181,"{'ios': 'https://chi.lft.to/lastmile_qr_scan', 'android': 'https://chi.lft.to/lastmile_qr_scan'}",41.963982,classic,[],,,,,,,,
94,a3ac35ed-a135-11e9-9cda-0a87ae2ba916,a3ac35ed-a135-11e9-9cda-0a87ae2ba916,KA1503000030,False,352,False,11,True,"['KEY', 'CREDITCARD', 'TRANSITCARD']",Jeffery Blvd & 67th St,-87.5771428255,"{'ios': 'https://chi.lft.to/lastmile_qr_scan', 'android': 'https://chi.lft.to/lastmile_qr_scan'}",41.77351755125,classic,[],,,,,,,,
95,a3a99d47-a135-11e9-9cda-0a87ae2ba916,a3a99d47-a135-11e9-9cda-0a87ae2ba916,13150,False,273,False,23,True,"['KEY', 'CREDITCARD', 'TRANSITCARD']",Michigan Ave & 18th St,-87.62455,"{'ios': 'https://chi.lft.to/lastmile_qr_scan', 'android': 'https://chi.lft.to/lastmile_qr_scan'}",41.857813,classic,[],,,,,,,,
96,a3b1fa1c-a135-11e9-9cda-0a87ae2ba916,a3b1fa1c-a135-11e9-9cda-0a87ae2ba916,KA1504000091,False,551,False,11,True,"['KEY', 'CREDITCARD', 'TRANSITCARD']",Hoyne Ave & 47th St,-87.67718,"{'ios': 'https://chi.lft.to/lastmile_qr_scan', 'android': 'https://chi.lft.to/lastmile_qr_scan'}",41.808227,classic,[],,,,,,,,
97,a3b2c87c-a135-11e9-9cda-0a87ae2ba916,a3b2c87c-a135-11e9-9cda-0a87ae2ba916,16994,False,591,False,15,True,"['KEY', 'CREDITCARD', 'TRANSITCARD']",Kilbourn Ave & Milwaukee Ave,-87.74000823497772,"{'ios': 'https://chi.lft.to/lastmile_qr_scan', 'android': 'https://chi.lft.to/lastmile_qr_scan'}",41.94707089418471,classic,[],,,,,,,,
98,a3aae35a-a135-11e9-9cda-0a87ae2ba916,a3aae35a-a135-11e9-9cda-0a87ae2ba916,13345,False,335,False,15,True,"['KEY', 'CREDITCARD', 'TRANSITCARD']",Calumet Ave & 35th St,-87.618034,"{'ios': 'https://chi.lft.to/lastmile_qr_scan', 'android': 'https://chi.lft.to/lastmile_qr_scan'}",41.831379,classic,[],,,,,,,,
99,a3b3634c-a135-11e9-9cda-0a87ae2ba916,a3b3634c-a135-11e9-9cda-0a87ae2ba916,18062,False,621,False,15,True,"['KEY', 'CREDITCARD', 'TRANSITCARD']",Aberdeen St & Randolph St,-87.654264,"{'ios': 'https://chi.lft.to/lastmile_qr_scan', 'android': 'https://chi.lft.to/lastmile_qr_scan'}",41.884114,classic,[],,,,,,,,
100,a3a75885-a135-11e9-9cda-0a87ae2ba916,a3a75885-a135-11e9-9cda-0a87ae2ba916,TA1307000070,False,183,False,23,True,"['KEY', 'CREDITCARD', 'TRANSITCARD']",Damen Ave & Thomas St (Augusta Blvd),-87.677409,"{'ios': 'https://chi.lft.to/lastmile_qr_scan', 'android': 'https://chi.lft.to/lastmile_qr_scan'}",41.901315,classic,[],,,,,,,,
101,a3ae87fa-a135-11e9-9cda-0a87ae2ba916,a3ae87fa-a135-11e9-9cda-0a87ae2ba916,RP-009,False,451,False,23,True,"['KEY', 'CREDITCARD', 'TRANSITCARD']",Sheridan Rd & Loyola Ave,-87.6611982433,"{'ios': 'https://chi.lft.to/lastmile_qr_scan', 'android': 'https://chi.lft.to/lastmile_qr_scan'}",42.00104377979,classic,[],,,,,,,,
102,a3a9f76a-a135-11e9-9cda-0a87ae2ba916,a3a9f76a-a135-11e9-9cda-0a87ae2ba916,13292,False,290,False,15,True,"['KEY', 'CREDITCARD', 'TRANSITCARD']",Kedzie Ave & Palmer Ct,-87.707322,"{'ios': 'https://chi.lft.to/lastmile_qr_scan', 'android': 'https://chi.lft.to/lastmile_qr_scan'}",41.921525,classic,[],,,,,,,,
103,a3ab9119-a135-11e9-9cda-0a87ae2ba916,a3ab9119-a135-11e9-9cda-0a87ae2ba916,TA1309000066,False,344,False,47,True,"['KEY', 'CREDITCARD', 'TRANSITCARD']",Ravenswood Ave & Lawrence Ave,-87.674237,"{'ios': 'https://chi.lft.to/lastmile_qr_scan', 'android': 'https://chi.lft.to/lastmile_qr_scan'}",41.96909,classic,[],,,,,,,,
104,a3a6c38e-a135-11e9-9cda-0a87ae2ba916,a3a6c38e-a135-11e9-9cda-0a87ae2ba916,TA1307000006,False,153,False,19,True,"['KEY', 'CREDITCARD', 'TRANSITCARD']",Southport Ave & Wellington Ave,-87.66360014677048,"{'ios': 'https://chi.lft.to/lastmile_qr_scan', 'android': 'https://chi.lft.to/lastmile_qr_scan'}",41.93577461766458,classic,[],,,,,,,,
105,792ceba0-564f-4a2c-bcb5-90da781ffeef,792ceba0-564f-4a2c-bcb5-90da781ffeef,20104,False,690,False,15,True,"['KEY', 'CREDITCARD', 'TRANSITCARD']",State St & 95th St,-87.6228544,"{'ios': 'https://chi.lft.to/lastmile_qr_scan', 'android': 'https://chi.lft.to/lastmile_qr_scan'}",41.7218499,classic,[],,,,,,,,
106,a3b4399a-a135-11e9-9cda-0a87ae2ba916,a3b4399a-a135-11e9-9cda-0a87ae2ba916,643,False,643,False,15,True,"['KEY', 'CREDITCARD', 'TRANSITCARD']",Smith Park,-87.689397,"{'ios': 'https://chi.lft.to/lastmile_qr_scan', 'android': 'https://chi.lft.to/lastmile_qr_scan'}",41.892048,classic,[],,,,,,,,
107,a3b2905a-a135-11e9-9cda-0a87ae2ba916,a3b2905a-a135-11e9-9cda-0a87ae2ba916,580,False,580,False,11,True,"['KEY', 'CREDITCARD', 'TRANSITCARD']",Exchange Ave & 79th St,-87.552812,"{'ios': 'https://chi.lft.to/lastmile_qr_scan', 'android': 'https://chi.lft.to/lastmile_qr_scan'}",41.751731,classic,[],,,,,,,,
108,a3aabad8-a135-11e9-9cda-0a87ae2ba916,a3aabad8-a135-11e9-9cda-0a87ae2ba916,TA1309000033,False,327,False,19,True,"['KEY', 'CREDITCARD', 'TRANSITCARD']",Sheffield Ave & Webster Ave,-87.653818,"{'ios': 'https://chi.lft.to/lastmile_qr_scan', 'android': 'https://chi.lft.to/lastmile_qr_scan'}",41.92154,classic,[],,,,,,,,
109,a3afbe2e-a135-11e9-9cda-0a87ae2ba916,a3afbe2e-a135-11e9-9cda-0a87ae2ba916,KA1504000158,False,486,False,15,True,"['KEY', 'CREDITCARD', 'TRANSITCARD']",Oakley Ave & Irving Park Rd,-87.6860796243,"{'ios': 'https://chi.lft.to/lastmile_qr_scan', 'android': 'https://chi.lft.to/lastmile_qr_scan'}",41.95434085219,classic,[],,,,,,,,
110,a3a9c0f6-a135-11e9-9cda-0a87ae2ba916,a3a9c0f6-a135-11e9-9cda-0a87ae2ba916,TA1308000046,False,280,False,11,True,"['KEY', 'CREDITCARD', 'TRANSITCARD']",Morgan St & 31st St,-87.65114,"{'ios': 'https://chi.lft.to/lastmile_qr_scan', 'android': 'https://chi.lft.to/lastmile_qr_scan'}",41.8378,classic,[],,,,,,,,
111,a3aa8ca0-a135-11e9-9cda-0a87ae2ba916,a3aa8ca0-a135-11e9-9cda-0a87ae2ba916,TA1309000043,False,318,False,15,True,"['KEY', 'CREDITCARD', 'TRANSITCARD']",Southport Ave & Irving Park Rd,-87.664358,"{'ios': 'https://chi.lft.to/lastmile_qr_scan', 'android': 'https://chi.lft.to/lastmile_qr_scan'}",41.954177,classic,[],,,,,,,,
112,a3a3ace6-a135-11e9-9cda-0a87ae2ba916,a3a3ace6-a135-11e9-9cda-0a87ae2ba916,13164,False,15,False,15,True,"['KEY', 'CREDITCARD', 'TRANSITCARD']",Racine Ave & 18th St,-87.656495,"{'ios': 'https://chi.lft.to/lastmile_qr_scan', 'android': 'https://chi.lft.to/lastmile_qr_scan'}",41.858166,classic,[],,,,,,,,
113,a3ac9d43-a135-11e9-9cda-0a87ae2ba916,a3ac9d43-a135-11e9-9cda-0a87ae2ba916,KA1504000103,False,374,False,23,True,"['KEY', 'CREDITCARD', 'TRANSITCARD']",Western Ave & Walton St,-87.6865960164,"{'ios': 'https://chi.lft.to/lastmile_qr_scan', 'android': 'https://chi.lft.to/lastmile_qr_scan'}",41.89841768945,classic,[],,,,,,,,
114,a3a8804b-a135-11e9-9cda-0a87ae2ba916,a3a8804b-a135-11e9-9cda-0a87ae2ba916,TA1307000149,False,244,False,19,True,"['KEY', 'CREDITCARD', 'TRANSITCARD']",Ravenswood Ave & Irving Park Rd,-87.67393,"{'ios': 'https://chi.lft.to/lastmile_qr_scan', 'android': 'https://chi.lft.to/lastmile_qr_scan'}",41.95469,classic,[],,,,,,,,
115,a3aa35a4-a135-11e9-9cda-0a87ae2ba916,a3aa35a4-a135-11e9-9cda-0a87ae2ba916,TA1309000023,False,302,False,31,True,"['KEY', 'CREDITCARD', 'TRANSITCARD']",Sheffield Ave & Wrightwood Ave,-87.653833,"{'ios': 'https://chi.lft.to/lastmile_qr_scan', 'android': 'https://chi.lft.to/lastmile_qr_scan'}",41.928712,classic,[],,,,,,,,
116,a3a41004-a135-11e9-9cda-0a87ae2ba916,a3a41004-a135-11e9-9cda-0a87ae2ba916,13124,False,34,False,15,True,"['KEY', 'CREDITCARD', 'TRANSITCARD']",Cannon Dr & Fullerton Ave,-87.6344287848,"{'ios': 'https://chi.lft.to/lastmile_qr_scan', 'android': 'https://chi.lft.to/lastmile_qr_scan'}",41.9267559875,classic,[],,,,,,,,
117,a3b23785-a135-11e9-9cda-0a87ae2ba916,a3b23785-a135-11e9-9cda-0a87ae2ba916,16948,False,563,False,11,True,"['KEY', 'CREDITCARD', 'TRANSITCARD']",Ashland Ave & 63rd St,-87.664843,"{'ios': 'https://chi.lft.to/lastmile_qr_scan', 'android': 'https://chi.lft.to/lastmile_qr_scan'}",41.779374,classic,[],,,,,,,,
118,a3a72012-a135-11e9-9cda-0a87ae2ba916,a3a72012-a135-11e9-9cda-0a87ae2ba916,KA1504000133,False,172,False,11,True,"['KEY', 'CREDITCARD', 'TRANSITCARD']",Rush St & Cedar St,-87.627690528,"{'ios': 'https://chi.lft.to/lastmile_qr_scan', 'android': 'https://chi.lft.to/lastmile_qr_scan'}",41.90230870122,classic,[],,,,,,,,
119,a3acdae2-a135-11e9-9cda-0a87ae2ba916,a3acdae2-a135-11e9-9cda-0a87ae2ba916,KA1503000025,False,390,False,11,True,"['KEY', 'CREDITCARD', 'TRANSITCARD']",Wentworth Ave & 63rd St,-87.6297463052,"{'ios': 'https://chi.lft.to/lastmile_qr_scan', 'android': 'https://chi.lft.to/lastmile_qr_scan'}",41.78007963264,classic,[],,,,,,,,
120,a3a854bf-a135-11e9-9cda-0a87ae2ba916,a3a854bf-a135-11e9-9cda-0a87ae2ba916,TA1307000143,False,236,False,15,True,"['KEY', 'CREDITCARD', 'TRANSITCARD']",Sedgwick St & Schiller St,-87.638566,"{'ios': 'https://chi.lft.to/lastmile_qr_scan', 'android': 'https://chi.lft.to/lastmile_qr_scan'}",41.907626,classic,[],,,,,,,,
121,a3a80512-a135-11e9-9cda-0a87ae2ba916,a3a80512-a135-11e9-9cda-0a87ae2ba916,13133,False,219,False,19,True,"['KEY', 'CREDITCARD', 'TRANSITCARD']",Damen Ave & Cortland St,-87.677335,"{'ios': 'https://chi.lft.to/lastmile_qr_scan', 'android': 'https://chi.lft.to/lastmile_qr_scan'}",41.915983,classic,[],,,,,,,,
122,a3a82c6c-a135-11e9-9cda-0a87ae2ba916,a3a82c6c-a135-11e9-9cda-0a87ae2ba916,13235,False,227,False,23,True,"['KEY', 'CREDITCARD', 'TRANSITCARD']",Southport Ave & Waveland Ave,-87.66394,"{'ios': 'https://chi.lft.to/lastmile_qr_scan', 'android': 'https://chi.lft.to/lastmile_qr_scan'}",41.94815,classic,[],,,,,,,,
123,a3b222fc-a135-11e9-9cda-0a87ae2ba916,a3b222fc-a135-11e9-9cda-0a87ae2ba916,559,False,559,False,11,True,"['KEY', 'CREDITCARD', 'TRANSITCARD']",Racine Ave & Garfield Blvd,-87.655073,"{'ios': 'https://chi.lft.to/lastmile_qr_scan', 'android': 'https://chi.lft.to/lastmile_qr_scan'}",41.794228,classic,[],,,,,,,,
124,a3a5d3bb-a135-11e9-9cda-0a87ae2ba916,a3a5d3bb-a135-11e9-9cda-0a87ae2ba916,13135,False,129,False,15,True,"['KEY', 'CREDITCARD', 'TRANSITCARD']",Blue Island Ave & 18th St,-87.661535,"{'ios': 'https://chi.lft.to/lastmile_qr_scan', 'android': 'https://chi.lft.to/lastmile_qr_scan'}",41.857556,classic,[],,,,,,,,
125,a3afb401-a135-11e9-9cda-0a87ae2ba916,a3afb401-a135-11e9-9cda-0a87ae2ba916,KA1504000139,False,484,False,15,True,"['KEY', 'CREDITCARD', 'TRANSITCARD']",Monticello Ave & Irving Park Rd,-87.7191281797,"{'ios': 'https://chi.lft.to/lastmile_qr_scan', 'android': 'https://chi.lft.to/lastmile_qr_scan'}",41.95400483876,classic,[],,,,,,,,
126,a3a547b8-a135-11e9-9cda-0a87ae2ba916,a3a547b8-a135-11e9-9cda-0a87ae2ba916,15491,False,101,False,15,True,"['KEY', 'CREDITCARD', 'TRANSITCARD']",63rd St Beach,-87.57632374763489,"{'ios': 'https://chi.lft.to/lastmile_qr_scan', 'android': 'https://chi.lft.to/lastmile_qr_scan'}",41.78091096424803,classic,[],,,,,,,,
127,a3aff616-a135-11e9-9cda-0a87ae2ba916,a3aff616-a135-11e9-9cda-0a87ae2ba916,KA150400009X,False,497,False,15,True,"['KEY', 'CREDITCARD', 'TRANSITCARD']",Kimball Ave & Belmont Ave,-87.71206766366959,"{'ios': 'https://chi.lft.to/lastmile_qr_scan', 'android': 'https://chi.lft.to/lastmile_qr_scan'}",41.93939395344302,classic,[],,,,,,,,
128,a3a5c440-a135-11e9-9cda-0a87ae2ba916,a3a5c440-a135-11e9-9cda-0a87ae2ba916,13128,False,126,False,15,True,"['KEY', 'CREDITCARD', 'TRANSITCARD']",Clark St & North Ave,-87.631942,"{'ios': 'https://chi.lft.to/lastmile_qr_scan', 'android': 'https://chi.lft.to/lastmile_qr_scan'}",41.911974,classic,[],,,,,,,,
129,a3b377cb-a135-11e9-9cda-0a87ae2ba916,a3b377cb-a135-11e9-9cda-0a87ae2ba916,E011,False,625,False,15,True,"['KEY', 'CREDITCARD', 'TRANSITCARD']",Dodge Ave & Main St,-87.69918769598006,"{'ios': 'https://chi.lft.to/lastmile_qr_scan', 'android': 'https://chi.lft.to/lastmile_qr_scan'}",42.03463185161588,classic,[],35,,,,,,,
130,a3a57a52-a135-11e9-9cda-0a87ae2ba916,a3a57a52-a135-11e9-9cda-0a87ae2ba916,13053,False,112,False,11,True,"['KEY', 'CREDITCARD', 'TRANSITCARD']",Green St & Washington Blvd,-87.64872461557388,"{'ios': 'https://chi.lft.to/lastmile_qr_scan', 'android': 'https://chi.lft.to/lastmile_qr_scan'}",41.88318130597391,classic,[],,,,,,,,
131,a3a62025-a135-11e9-9cda-0a87ae2ba916,a3a62025-a135-11e9-9cda-0a87ae2ba916,13193,False,144,False,19,True,"['KEY', 'CREDITCARD', 'TRANSITCARD']",Larrabee St & Webster Ave,-87.64414,"{'ios': 'https://chi.lft.to/lastmile_qr_scan', 'android': 'https://chi.lft.to/lastmile_qr_scan'}",41.921822,classic,[],,,,,,,,
132,a3a5f0b8-a135-11e9-9cda-0a87ae2ba916,a3a5f0b8-a135-11e9-9cda-0a87ae2ba916,13158,False,134,False,19,True,"['KEY', 'CREDITCARD', 'TRANSITCARD']",Peoria St & Jackson Blvd,-87.64961779117584,"{'ios': 'https://chi.lft.to/lastmile_qr_scan', 'android': 'https://chi.lft.to/lastmile_qr_scan'}",41.8776415962753,classic,[],,,,,,,,
133,a3a42a93-a135-11e9-9cda-0a87ae2ba916,a3a42a93-a135-11e9-9cda-0a87ae2ba916,KA1503000015,False,39,False,23,True,"['KEY', 'CREDITCARD', 'TRANSITCARD']",Wabash Ave & Adams St,-87.6256886059,"{'ios': 'https://chi.lft.to/lastmile_qr_scan', 'android': 'https://chi.lft.to/lastmile_qr_scan'}",41.87947235235,classic,[],,,,,,,,
134,87d2a090-22cd-471b-b622-fef3923999dd,87d2a090-22cd-471b-b622-fef3923999dd,20102,False,740,False,15,True,"['KEY', 'CREDITCARD', 'TRANSITCARD']",Loomis St & 89th St,-87.65806943178177,"{'ios': 'https://chi.lft.to/lastmile_qr_scan', 'android': 'https://chi.lft.to/lastmile_qr_scan'}",41.73237975329554,classic,[],,,,,,,,
135,a3b0bd42-a135-11e9-9cda-0a87ae2ba916,a3b0bd42-a135-11e9-9cda-0a87ae2ba916,15655,False,511,False,15,True,"['KEY', 'CREDITCARD', 'TRANSITCARD']",Albany Ave & Bloomingdale Ave,-87.705126462,"{'ios': 'https://chi.lft.to/lastmile_qr_scan', 'android': 'https://chi.lft.to/lastmile_qr_scan'}",41.91402671273,classic,[],,,,,,,,
136,a3a77c8d-a135-11e9-9cda-0a87ae2ba916,a3a77c8d-a135-11e9-9cda-0a87ae2ba916,13011,False,192,False,47,True,"['KEY', 'CREDITCARD', 'TRANSITCARD']",Canal St & Adams St,-87.639904,"{'ios': 'https://chi.lft.to/lastmile_qr_scan', 'android': 'https://chi.lft.to/lastmile_qr_scan'}",41.879255,classic,[],,,,,,,,
137,8fd03909-317e-4b6c-b8e9-f4c28b4c90b1,8fd03909-317e-4b6c-b8e9-f4c28b4c90b1,20217,False,720,False,15,True,"['KEY', 'CREDITCARD', 'TRANSITCARD']",Torrence Ave & 126th Pl,-87.55721569061278,"{'ios': 'https://chi.lft.to/lastmile_qr_scan', 'android': 'https://chi.lft.to/lastmile_qr_scan'}",41.66631200825726,classic,[],,,,,,,,
138,a3add889-a135-11e9-9cda-0a87ae2ba916,a3add889-a135-11e9-9cda-0a87ae2ba916,15687,False,440,False,11,True,"['KEY', 'CREDITCARD', 'TRANSITCARD']",Central Park Ave & 24th St,-87.715068,"{'ios': 'https://chi.lft.to/lastmile_qr_scan', 'android': 'https://chi.lft.to/lastmile_qr_scan'}",41.8481,classic,[],,,,,,,,
139,a3a7dc8c-a135-11e9-9cda-0a87ae2ba916,a3a7dc8c-a135-11e9-9cda-0a87ae2ba916,13016,False,211,False,19,True,"['KEY', 'CREDITCARD', 'TRANSITCARD']",St. Clair St & Erie St,-87.62279838323593,"{'ios': 'https://chi.lft.to/lastmile_qr_scan', 'android': 'https://chi.lft.to/lastmile_qr_scan'}",41.89434513742426,classic,[],,,,,,,,
140,a3a771c2-a135-11e9-9cda-0a87ae2ba916,a3a771c2-a135-11e9-9cda-0a87ae2ba916,TA1307000113,False,190,False,15,True,"['KEY', 'CREDITCARD', 'TRANSITCARD']",Southport Ave & Wrightwood Ave,-87.663913,"{'ios': 'https://chi.lft.to/lastmile_qr_scan', 'android': 'https://chi.lft.to/lastmile_qr_scan'}",41.928773,classic,[],,,,,,,,
141,a3b310ac-a135-11e9-9cda-0a87ae2ba916,a3b310ac-a135-11e9-9cda-0a87ae2ba916,605,False,605,False,15,True,"['KEY', 'CREDITCARD', 'TRANSITCARD']",University Library (NU),-87.673447,"{'ios': 'https://chi.lft.to/lastmile_qr_scan', 'android': 'https://chi.lft.to/lastmile_qr_scan'}",42.052939,classic,[],35,,,,,,,
142,a3b2e20c-a135-11e9-9cda-0a87ae2ba916,a3b2e20c-a135-11e9-9cda-0a87ae2ba916,596,False,596,False,15,True,"['KEY', 'CREDITCARD', 'TRANSITCARD']",Benson Ave & Church St,-87.683485,"{'ios': 'https://chi.lft.to/lastmile_qr_scan', 'android': 'https://chi.lft.to/lastmile_qr_scan'}",42.048214,classic,[],35,,,,,,,
143,a3b0d1d5-a135-11e9-9cda-0a87ae2ba916,a3b0d1d5-a135-11e9-9cda-0a87ae2ba916,515,False,515,False,19,True,"['KEY', 'CREDITCARD', 'TRANSITCARD']",Paulina St & Howard St,-87.673573,"{'ios': 'https://chi.lft.to/lastmile_qr_scan', 'android': 'https://chi.lft.to/lastmile_qr_scan'}",42.019159,classic,[],,,,,,,,
144,a3b11993-a135-11e9-9cda-0a87ae2ba916,a3b11993-a135-11e9-9cda-0a87ae2ba916,16905,False,531,False,11,True,"['KEY', 'CREDITCARD', 'TRANSITCARD']",Central Ave & Lake St,-87.765469,"{'ios': 'https://chi.lft.to/lastmile_qr_scan', 'android': 'https://chi.lft.to/lastmile_qr_scan'}",41.887664,classic,[],,,,,,,,
145,a3ad8587-a135-11e9-9cda-0a87ae2ba916,a3ad8587-a135-11e9-9cda-0a87ae2ba916,KA1503000074,False,424,False,27,True,"['KEY', 'CREDITCARD', 'TRANSITCARD']",Museum of Science and Industry,-87.583945009,"{'ios': 'https://chi.lft.to/lastmile_qr_scan', 'android': 'https://chi.lft.to/lastmile_qr_scan'}",41.79172820953,classic,[],,,,,,,,
146,a3a42574-a135-11e9-9cda-0a87ae2ba916,a3a42574-a135-11e9-9cda-0a87ae2ba916,KA1503000012,False,38,False,27,True,"['KEY', 'CREDITCARD', 'TRANSITCARD']",Clark St & Lake St,-87.6308760584,"{'ios': 'https://chi.lft.to/lastmile_qr_scan', 'android': 'https://chi.lft.to/lastmile_qr_scan'}",41.88602082773,classic,[],,,,,,,,
147,a3a9acc5-a135-11e9-9cda-0a87ae2ba916,a3a9acc5-a135-11e9-9cda-0a87ae2ba916,13258,False,276,False,11,True,"['KEY', 'CREDITCARD', 'TRANSITCARD']",California Ave & North Ave,-87.6968944,"{'ios': 'https://chi.lft.to/lastmile_qr_scan', 'android': 'https://chi.lft.to/lastmile_qr_scan'}",41.9104754,classic,[],,,,,,,,
148,a3aaca0e-a135-11e9-9cda-0a87ae2ba916,a3aaca0e-a135-11e9-9cda-0a87ae2ba916,TA1309000050,False,330,False,19,True,"['KEY', 'CREDITCARD', 'TRANSITCARD']",Lincoln Ave & Addison St,-87.673308,"{'ios': 'https://chi.lft.to/lastmile_qr_scan', 'android': 'https://chi.lft.to/lastmile_qr_scan'}",41.946176,classic,[],,,,,,,,
149,a3a3eb9a-a135-11e9-9cda-0a87ae2ba916,a3a3eb9a-a135-11e9-9cda-0a87ae2ba916,TA1306000008,False,27,False,19,True,"['KEY', 'CREDITCARD', 'TRANSITCARD']",Larrabee St & North Ave,-87.6435,"{'ios': 'https://chi.lft.to/lastmile_qr_scan', 'android': 'https://chi.lft.to/lastmile_qr_scan'}",41.91021,classic,[],,,,,,,,
150,14d6e4b0-d0cc-4ccb-b757-e596d8c24a99,14d6e4b0-d0cc-4ccb-b757-e596d8c24a99,20221,False,707,False,15,True,"['KEY', 'CREDITCARD', 'TRANSITCARD']",Torrence Ave & 106th St,-87.55972623825073,"{'ios': 'https://chi.lft.to/lastmile_qr_scan', 'android': 'https://chi.lft.to/lastmile_qr_scan'}",41.702800850225906,classic,[],,,,,,,,
151,a3a9a778-a135-11e9-9cda-0a87ae2ba916,a3a9a778-a135-11e9-9cda-0a87ae2ba916,13354,False,275,False,15,True,"['KEY', 'CREDITCARD', 'TRANSITCARD']",Ashland Ave & 13th St,-87.666507,"{'ios': 'https://chi.lft.to/lastmile_qr_scan', 'android': 'https://chi.lft.to/lastmile_qr_scan'}",41.865234,classic,[],,,,,,,,
152,a3a3bc53-a135-11e9-9cda-0a87ae2ba916,a3a3bc53-a135-11e9-9cda-0a87ae2ba916,KA1503000072,False,18,False,15,True,"['KEY', 'CREDITCARD', 'TRANSITCARD']",Wacker Dr & Washington St,-87.63724207878113,"{'ios': 'https://chi.lft.to/lastmile_qr_scan', 'android': 'https://chi.lft.to/lastmile_qr_scan'}",41.88314336439022,classic,[],,,,,,,,
153,a3ad42c3-a135-11e9-9cda-0a87ae2ba916,a3ad42c3-a135-11e9-9cda-0a87ae2ba916,KA1503000051,False,411,False,11,True,"['KEY', 'CREDITCARD', 'TRANSITCARD']",Halsted St & 47th Pl,-87.6456165545,"{'ios': 'https://chi.lft.to/lastmile_qr_scan', 'android': 'https://chi.lft.to/lastmile_qr_scan'}",41.80813391481,classic,[],,,,,,,,
154,a3a64639-a135-11e9-9cda-0a87ae2ba916,a3a64639-a135-11e9-9cda-0a87ae2ba916,TA1307000064,False,152,False,15,True,"['KEY', 'CREDITCARD', 'TRANSITCARD']",Lincoln Ave & Diversey Pkwy,-87.658617,"{'ios': 'https://chi.lft.to/lastmile_qr_scan', 'android': 'https://chi.lft.to/lastmile_qr_scan'}",41.932225,classic,[],,,,,,,,
155,a3aa59bb-a135-11e9-9cda-0a87ae2ba916,a3aa59bb-a135-11e9-9cda-0a87ae2ba916,TA1309000029,False,309,False,11,True,"['KEY', 'CREDITCARD', 'TRANSITCARD']",Leavitt St & Armitage Ave,-87.682437,"{'ios': 'https://chi.lft.to/lastmile_qr_scan', 'android': 'https://chi.lft.to/lastmile_qr_scan'}",41.917805,classic,[],,,,,,,,
156,a3ad5c90-a135-11e9-9cda-0a87ae2ba916,a3ad5c90-a135-11e9-9cda-0a87ae2ba916,KA1503000069,False,416,False,15,True,"['KEY', 'CREDITCARD', 'TRANSITCARD']",Dorchester Ave & 49th St,-87.592464,"{'ios': 'https://chi.lft.to/lastmile_qr_scan', 'android': 'https://chi.lft.to/lastmile_qr_scan'}",41.805772,classic,[],,,,,,,,
157,a3b20e8a-a135-11e9-9cda-0a87ae2ba916,a3b20e8a-a135-11e9-9cda-0a87ae2ba916,16940,False,555,False,11,True,"['KEY', 'CREDITCARD', 'TRANSITCARD']",Ashland Ave & 50th St,-87.664699,"{'ios': 'https://chi.lft.to/lastmile_qr_scan', 'android': 'https://chi.lft.to/lastmile_qr_scan'}",41.803023,classic,[],,,,,,,,
158,a3a6054c-a135-11e9-9cda-0a87ae2ba916,a3a6054c-a135-11e9-9cda-0a87ae2ba916,TA1307000115,False,138,False,15,True,"['KEY', 'CREDITCARD', 'TRANSITCARD']",Clybourn Ave & Division St,-87.640552,"{'ios': 'https://chi.lft.to/lastmile_qr_scan', 'android': 'https://chi.lft.to/lastmile_qr_scan'}",41.904613,classic,[],,,,,,,,
159,a3b3686c-a135-11e9-9cda-0a87ae2ba916,a3b3686c-a135-11e9-9cda-0a87ae2ba916,17660,False,622,False,15,True,"['KEY', 'CREDITCARD', 'TRANSITCARD']",California Ave & Cortez St,-87.696704,"{'ios': 'https://chi.lft.to/lastmile_qr_scan', 'android': 'https://chi.lft.to/lastmile_qr_scan'}",41.900363,classic,[],,,,,,,,
160,a3aa91f4-a135-11e9-9cda-0a87ae2ba916,a3aa91f4-a135-11e9-9cda-0a87ae2ba916,13294,False,319,False,15,True,"['KEY', 'CREDITCARD', 'TRANSITCARD']",Greenview Ave & Diversey Pkwy,-87.66593635082245,"{'ios': 'https://chi.lft.to/lastmile_qr_scan', 'android': 'https://chi.lft.to/lastmile_qr_scan'}",41.93258963429789,classic,[],,,,,,,,
161,a3ad2843-a135-11e9-9cda-0a87ae2ba916,a3ad2843-a135-11e9-9cda-0a87ae2ba916,KA1503000004,False,406,False,19,True,"['KEY', 'CREDITCARD', 'TRANSITCARD']",Lake Park Ave & 35th St,-87.6087991946,"{'ios': 'https://chi.lft.to/lastmile_qr_scan', 'android': 'https://chi.lft.to/lastmile_qr_scan'}",41.83127423549,classic,[],,,,,,,,
162,a3ad8aa3-a135-11e9-9cda-0a87ae2ba916,a3ad8aa3-a135-11e9-9cda-0a87ae2ba916,KA1503000070,False,425,False,15,True,"['KEY', 'CREDITCARD', 'TRANSITCARD']",Harper Ave & 59th St,-87.5883151702,"{'ios': 'https://chi.lft.to/lastmile_qr_scan', 'android': 'https://chi.lft.to/lastmile_qr_scan'}",41.78794281287,classic,[],,,,,,,,
163,a3b38728-a135-11e9-9cda-0a87ae2ba916,a3b38728-a135-11e9-9cda-0a87ae2ba916,18067,False,628,False,23,True,"['KEY', 'CREDITCARD', 'TRANSITCARD']",Walsh Park,-87.667968,"{'ios': 'https://chi.lft.to/lastmile_qr_scan', 'android': 'https://chi.lft.to/lastmile_qr_scan'}",41.91461,classic,[],,,,,,,,
164,a3aa5ed1-a135-11e9-9cda-0a87ae2ba916,a3aa5ed1-a135-11e9-9cda-0a87ae2ba916,13288,False,310,False,11,True,"['KEY', 'CREDITCARD', 'TRANSITCARD']",Damen Ave & Charleston St,-87.677855,"{'ios': 'https://chi.lft.to/lastmile_qr_scan', 'android': 'https://chi.lft.to/lastmile_qr_scan'}",41.920082,classic,[],,,,,,,,
165,a3a88f84-a135-11e9-9cda-0a87ae2ba916,a3a88f84-a135-11e9-9cda-0a87ae2ba916,TA1308000009,False,247,False,19,True,"['KEY', 'CREDITCARD', 'TRANSITCARD']",Shore Dr & 55th St,-87.580715,"{'ios': 'https://chi.lft.to/lastmile_qr_scan', 'android': 'https://chi.lft.to/lastmile_qr_scan'}",41.795212,classic,[],,,,,,,,
166,a3a3a7b4-a135-11e9-9cda-0a87ae2ba916,a3a3a7b4-a135-11e9-9cda-0a87ae2ba916,13163,False,14,False,15,True,"['KEY', 'CREDITCARD', 'TRANSITCARD']",Morgan St & 18th St,-87.651073,"{'ios': 'https://chi.lft.to/lastmile_qr_scan', 'android': 'https://chi.lft.to/lastmile_qr_scan'}",41.858086,classic,[],,,,,,,,
167,a3b2810e-a135-11e9-9cda-0a87ae2ba916,a3b2810e-a135-11e9-9cda-0a87ae2ba916,577,False,577,False,11,True,"['KEY', 'CREDITCARD', 'TRANSITCARD']",Stony Island Ave & South Chicago Ave,-87.585337,"{'ios': 'https://chi.lft.to/lastmile_qr_scan', 'android': 'https://chi.lft.to/lastmile_qr_scan'}",41.751173,classic,[],,,,,,,,
168,a3a89488-a135-11e9-9cda-0a87ae2ba916,a3a89488-a135-11e9-9cda-0a87ae2ba916,TA1307000164,False,248,False,19,True,"['KEY', 'CREDITCARD', 'TRANSITCARD']",Woodlawn Ave & 55th St,-87.596471,"{'ios': 'https://chi.lft.to/lastmile_qr_scan', 'android': 'https://chi.lft.to/lastmile_qr_scan'}",41.795264,classic,[],,,,,,,,
169,a3a4f993-a135-11e9-9cda-0a87ae2ba916,a3a4f993-a135-11e9-9cda-0a87ae2ba916,13289,False,86,False,19,True,"['KEY', 'CREDITCARD', 'TRANSITCARD']",Eckhart Park,-87.66098386,"{'ios': 'https://chi.lft.to/lastmile_qr_scan', 'android': 'https://chi.lft.to/lastmile_qr_scan'}",41.89637337,classic,[],,,,,,,,
170,c4040b17-88bd-40ab-9aae-2655d6771580,c4040b17-88bd-40ab-9aae-2655d6771580,20235,False,702,False,15,True,"['KEY', 'CREDITCARD', 'TRANSITCARD']",Greenwood Ave & 91st St,-87.59729862213135,"{'ios': 'https://chi.lft.to/lastmile_qr_scan', 'android': 'https://chi.lft.to/lastmile_qr_scan'}",41.728264268162725,classic,[],,,,,,,,
171,a3ab8bee-a135-11e9-9cda-0a87ae2ba916,a3ab8bee-a135-11e9-9cda-0a87ae2ba916,TA1309000059,False,343,False,15,True,"['KEY', 'CREDITCARD', 'TRANSITCARD']",Racine Ave & Wrightwood Ave,-87.658971,"{'ios': 'https://chi.lft.to/lastmile_qr_scan', 'android': 'https://chi.lft.to/lastmile_qr_scan'}",41.928887,classic,[],,,,,,,,
172,a3ad1e12-a135-11e9-9cda-0a87ae2ba916,a3ad1e12-a135-11e9-9cda-0a87ae2ba916,15445,False,403,False,15,True,"['KEY', 'CREDITCARD', 'TRANSITCARD']",Wentworth Ave & 33rd St,-87.6318229814,"{'ios': 'https://chi.lft.to/lastmile_qr_scan', 'android': 'https://chi.lft.to/lastmile_qr_scan'}",41.83452988563,classic,[],,,,,,,,
173,a3ad61c2-a135-11e9-9cda-0a87ae2ba916,a3ad61c2-a135-11e9-9cda-0a87ae2ba916,KA1503000007,False,417,False,19,True,"['KEY', 'CREDITCARD', 'TRANSITCARD']",Cornell Ave & Hyde Park Blvd,-87.586924,"{'ios': 'https://chi.lft.to/lastmile_qr_scan', 'android': 'https://chi.lft.to/lastmile_qr_scan'}",41.802406,classic,[],,,,,,,,
174,a3a4c618-a135-11e9-9cda-0a87ae2ba916,a3a4c618-a135-11e9-9cda-0a87ae2ba916,WL-011,False,73,False,19,True,"['KEY', 'CREDITCARD', 'TRANSITCARD']",Jefferson St & Monroe St,-87.64274597167967,"{'ios': 'https://chi.lft.to/lastmile_qr_scan', 'android': 'https://chi.lft.to/lastmile_qr_scan'}",41.880329633634624,classic,[],,,,,,,,
175,391d5cd8-c87c-42f8-94df-823f94284005,391d5cd8-c87c-42f8-94df-823f94284005,20224,False,738,False,15,True,"['KEY', 'CREDITCARD', 'TRANSITCARD']",Calumet Park,-87.53084421157837,"{'ios': 'https://chi.lft.to/lastmile_qr_scan', 'android': 'https://chi.lft.to/lastmile_qr_scan'}",41.71370983035615,classic,[],,,,,,,,
176,a3a7d279-a135-11e9-9cda-0a87ae2ba916,a3a7d279-a135-11e9-9cda-0a87ae2ba916,TA1308000014,False,209,False,11,True,"['KEY', 'CREDITCARD', 'TRANSITCARD']",Normal Ave & Archer Ave,-87.640591,"{'ios': 'https://chi.lft.to/lastmile_qr_scan', 'android': 'https://chi.lft.to/lastmile_qr_scan'}",41.849527,classic,[],,,,,,,,
177,a3a434ce-a135-11e9-9cda-0a87ae2ba916,a3a434ce-a135-11e9-9cda-0a87ae2ba916,SL-008,False,41,False,19,True,"['KEY', 'CREDITCARD', 'TRANSITCARD']",Federal St & Polk St,-87.6295437729,"{'ios': 'https://chi.lft.to/lastmile_qr_scan', 'android': 'https://chi.lft.to/lastmile_qr_scan'}",41.87207763285,classic,[],,,,,,,,
178,a3b29a90-a135-11e9-9cda-0a87ae2ba916,a3b29a90-a135-11e9-9cda-0a87ae2ba916,582,False,582,False,11,True,"['KEY', 'CREDITCARD', 'TRANSITCARD']",Phillips Ave & 83rd St,-87.56506,"{'ios': 'https://chi.lft.to/lastmile_qr_scan', 'android': 'https://chi.lft.to/lastmile_qr_scan'}",41.744531,classic,[],,,,,,,,
179,a3b49122-a135-11e9-9cda-0a87ae2ba916,a3b49122-a135-11e9-9cda-0a87ae2ba916,660,False,660,False,15,True,"['KEY', 'CREDITCARD', 'TRANSITCARD']",Sheridan Rd & Columbia Ave,-87.661406,"{'ios': 'https://chi.lft.to/lastmile_qr_scan', 'android': 'https://chi.lft.to/lastmile_qr_scan'}",42.004583,classic,[],,,,,,,,
180,a3a8224f-a135-11e9-9cda-0a87ae2ba916,a3a8224f-a135-11e9-9cda-0a87ae2ba916,13192,False,225,False,23,True,"['KEY', 'CREDITCARD', 'TRANSITCARD']",Halsted St & Dickens Ave,-87.64883,"{'ios': 'https://chi.lft.to/lastmile_qr_scan', 'android': 'https://chi.lft.to/lastmile_qr_scan'}",41.919936,classic,[],,,,,,,,
181,a3ab812d-a135-11e9-9cda-0a87ae2ba916,a3ab812d-a135-11e9-9cda-0a87ae2ba916,13431,False,341,False,39,True,"['KEY', 'CREDITCARD', 'TRANSITCARD']",Adler Planetarium,-87.607267,"{'ios': 'https://chi.lft.to/lastmile_qr_scan', 'android': 'https://chi.lft.to/lastmile_qr_scan'}",41.866095,classic,[],,,,,,,,
182,a3b300d3-a135-11e9-9cda-0a87ae2ba916,a3b300d3-a135-11e9-9cda-0a87ae2ba916,E007,False,602,False,15,True,"['KEY', 'CREDITCARD', 'TRANSITCARD']",Central St & Girard Ave,-87.686152,"{'ios': 'https://chi.lft.to/lastmile_qr_scan', 'android': 'https://chi.lft.to/lastmile_qr_scan'}",42.064313,classic,[],35,,,,,,,
183,7e435d2a-617e-4c3f-bed0-a8801c20f265,7e435d2a-617e-4c3f-bed0-a8801c20f265,20236,False,705,False,15,True,"['KEY', 'CREDITCARD', 'TRANSITCARD']",Stony Island Ave & 90th St,-87.58574366569519,"{'ios': 'https://chi.lft.to/lastmile_qr_scan', 'android': 'https://chi.lft.to/lastmile_qr_scan'}",41.731394943302355,classic,[],,,,,,,,
184,a3b4728f-a135-11e9-9cda-0a87ae2ba916,a3b4728f-a135-11e9-9cda-0a87ae2ba916,654,False,654,False,11,True,"['KEY', 'CREDITCARD', 'TRANSITCARD']",Racine Ave & Washington Blvd,-87.656952,"{'ios': 'https://chi.lft.to/lastmile_qr_scan', 'android': 'https://chi.lft.to/lastmile_qr_scan'}",41.883073,classic,[],,,,,,,,
185,a3a8711c-a135-11e9-9cda-0a87ae2ba916,a3a8711c-a135-11e9-9cda-0a87ae2ba916,TA1307000130,False,241,False,19,True,"['KEY', 'CREDITCARD', 'TRANSITCARD']",Morgan St & Polk St,-87.65103,"{'ios': 'https://chi.lft.to/lastmile_qr_scan', 'android': 'https://chi.lft.to/lastmile_qr_scan'}",41.871737,classic,[],,,,,,,,
186,a3b45e26-a135-11e9-9cda-0a87ae2ba916,a3b45e26-a135-11e9-9cda-0a87ae2ba916,650,False,650,False,11,True,"['KEY', 'CREDITCARD', 'TRANSITCARD']",Eggleston Ave & 69th St,-87.635876,"{'ios': 'https://chi.lft.to/lastmile_qr_scan', 'android': 'https://chi.lft.to/lastmile_qr_scan'}",41.768898,classic,[],,,,,,,,
187,a3a866a5-a135-11e9-9cda-0a87ae2ba916,a3a866a5-a135-11e9-9cda-0a87ae2ba916,TA1307000140,False,239,False,19,True,"['KEY', 'CREDITCARD', 'TRANSITCARD']",Western Ave & Leland Ave,-87.68870428204536,"{'ios': 'https://chi.lft.to/lastmile_qr_scan', 'android': 'https://chi.lft.to/lastmile_qr_scan'}",41.966399801840986,classic,[],,,,,,,,
188,8995498f-1209-4b06-9317-01cd695b3b61,8995498f-1209-4b06-9317-01cd695b3b61,RN-,False,672,False,11,True,"['KEY', 'CREDITCARD', 'TRANSITCARD']",Franklin St & Illinois St,-87.63547986745834,"{'ios': 'https://chi.lft.to/lastmile_qr_scan', 'android': 'https://chi.lft.to/lastmile_qr_scan'}",41.89102331025185,classic,[],,,,,,,,
189,c3f1be96-07c2-4c65-8a1d-f2203de88495,c3f1be96-07c2-4c65-8a1d-f2203de88495,20233,False,681,False,15,True,"['KEY', 'CREDITCARD', 'TRANSITCARD']",Halsted St & 78th St,-87.6439021574879,"{'ios': 'https://chi.lft.to/lastmile_qr_scan', 'android': 'https://chi.lft.to/lastmile_qr_scan'}",41.75248701249013,classic,[],,,,,,,,
190,a3acacbc-a135-11e9-9cda-0a87ae2ba916,a3acacbc-a135-11e9-9cda-0a87ae2ba916,KA1504000106,False,377,False,15,True,"['KEY', 'CREDITCARD', 'TRANSITCARD']",Kedzie Ave & Lake St,-87.7063037436,"{'ios': 'https://chi.lft.to/lastmile_qr_scan', 'android': 'https://chi.lft.to/lastmile_qr_scan'}",41.88460328501,classic,[],,,,,,,,
191,a3a58ee0-a135-11e9-9cda-0a87ae2ba916,a3a58ee0-a135-11e9-9cda-0a87ae2ba916,13068,False,116,False,15,True,"['KEY', 'CREDITCARD', 'TRANSITCARD']",Western Ave & Winnebago Ave,-87.687022,"{'ios': 'https://chi.lft.to/lastmile_qr_scan', 'android': 'https://chi.lft.to/lastmile_qr_scan'}",41.91552,classic,[],,,,,,,,
192,a3ac4548-a135-11e9-9cda-0a87ae2ba916,a3ac4548-a135-11e9-9cda-0a87ae2ba916,KA1503000029,False,355,False,15,True,"['KEY', 'CREDITCARD', 'TRANSITCARD']",South Shore Dr & 67th St,-87.567514,"{'ios': 'https://chi.lft.to/lastmile_qr_scan', 'android': 'https://chi.lft.to/lastmile_qr_scan'}",41.773643,classic,[],,,,,,,,
193,a3aca268-a135-11e9-9cda-0a87ae2ba916,a3aca268-a135-11e9-9cda-0a87ae2ba916,KA1504000113,False,375,False,11,True,"['KEY', 'CREDITCARD', 'TRANSITCARD']",Sacramento Blvd & Franklin Blvd,-87.70260751247406,"{'ios': 'https://chi.lft.to/lastmile_qr_scan', 'android': 'https://chi.lft.to/lastmile_qr_scan'}",41.89046879243862,classic,[],,,,,,,,
194,b43a9764-2b1d-4fa0-a13f-7e05eddc7fcd,b43a9764-2b1d-4fa0-a13f-7e05eddc7fcd,20205,False,728,False,23,True,"['KEY', 'CREDITCARD', 'TRANSITCARD']",Western Ave & 111th St,-87.68129736185074,"{'ios': 'https://chi.lft.to/lastmile_qr_scan', 'android': 'https://chi.lft.to/lastmile_qr_scan'}",41.691211034981045,classic,[],,,,,,,,
195,a3b1eaa7-a135-11e9-9cda-0a87ae2ba916,a3b1eaa7-a135-11e9-9cda-0a87ae2ba916,16933,False,548,False,7,True,"['KEY', 'CREDITCARD', 'TRANSITCARD']",Morgan St & Pershing Rd,-87.650931,"{'ios': 'https://chi.lft.to/lastmile_qr_scan', 'android': 'https://chi.lft.to/lastmile_qr_scan'}",41.823613,classic,[],,,,,,,,
196,a3b218cd-a135-11e9-9cda-0a87ae2ba916,a3b218cd-a135-11e9-9cda-0a87ae2ba916,557,False,557,False,11,True,"['KEY', 'CREDITCARD', 'TRANSITCARD']",Seeley Ave & Garfield Blvd,-87.675478,"{'ios': 'https://chi.lft.to/lastmile_qr_scan', 'android': 'https://chi.lft.to/lastmile_qr_scan'}",41.794087,classic,[],,,,,,,,
197,a065d29d-a081-47f4-8d0f-9a572f6085fe,a065d29d-a081-47f4-8d0f-9a572f6085fe,20243,False,709,False,15,True,"['KEY', 'CREDITCARD', 'TRANSITCARD']",Michigan Ave & 114th St,-87.62105226516724,"{'ios': 'https://chi.lft.to/lastmile_qr_scan', 'android': 'https://chi.lft.to/lastmile_qr_scan'}",41.68701479467118,classic,[],,,,,,,,
198,a3b26acf-a135-11e9-9cda-0a87ae2ba916,a3b26acf-a135-11e9-9cda-0a87ae2ba916,573,False,573,False,11,True,"['KEY', 'CREDITCARD', 'TRANSITCARD']",State St & 79th St,-87.624424,"{'ios': 'https://chi.lft.to/lastmile_qr_scan', 'android': 'https://chi.lft.to/lastmile_qr_scan'}",41.750794,classic,[],,,,,,,,
199,a3a7cd56-a135-11e9-9cda-0a87ae2ba916,a3a7cd56-a135-11e9-9cda-0a87ae2ba916,13307,False,208,False,15,True,"['KEY', 'CREDITCARD', 'TRANSITCARD']",Laflin St & Cullerton St,-87.66355991363525,"{'ios': 'https://chi.lft.to/lastmile_qr_scan', 'android': 'https://chi.lft.to/lastmile_qr_scan'}",41.85491457576575,classic,[],,,,,,,,
200,a3b3820c-a135-11e9-9cda-0a87ae2ba916,a3b3820c-a135-11e9-9cda-0a87ae2ba916,KP1705001026,False,627,False,19,True,"['KEY', 'CREDITCARD', 'TRANSITCARD']",LaSalle Dr & Huron St,-87.632326,"{'ios': 'https://chi.lft.to/lastmile_qr_scan', 'android': 'https://chi.lft.to/lastmile_qr_scan'}",41.894877,classic,[],,,,,,,,
201,a3b22815-a135-11e9-9cda-0a87ae2ba916,a3b22815-a135-11e9-9cda-0a87ae2ba916,560,False,560,False,11,True,"['KEY', 'CREDITCARD', 'TRANSITCARD']",Marshfield Ave & 59th St,-87.666215,"{'ios': 'https://chi.lft.to/lastmile_qr_scan', 'android': 'https://chi.lft.to/lastmile_qr_scan'}",41.786833,classic,[],,,,,,,,
202,c1f104db-9ee7-4999-bd4a-ddd766c75e04,c1f104db-9ee7-4999-bd4a-ddd766c75e04,20222,False,710,False,11,True,"['KEY', 'CREDITCARD', 'TRANSITCARD']",Burnham Greenway & 105th St,-87.52823173999786,"{'ios': 'https://chi.lft.to/lastmile_qr_scan', 'android': 'https://chi.lft.to/lastmile_qr_scan'}",41.7045750872071,classic,[],,,,,,,,
203,a3b25656-a135-11e9-9cda-0a87ae2ba916,a3b25656-a135-11e9-9cda-0a87ae2ba916,569,False,569,False,11,True,"['KEY', 'CREDITCARD', 'TRANSITCARD']",Woodlawn Ave & 75th St,-87.595751,"{'ios': 'https://chi.lft.to/lastmile_qr_scan', 'android': 'https://chi.lft.to/lastmile_qr_scan'}",41.75916,classic,[],,,,,,,,
204,a3aab5c1-a135-11e9-9cda-0a87ae2ba916,a3aab5c1-a135-11e9-9cda-0a87ae2ba916,TA1309000014,False,326,False,19,True,"['KEY', 'CREDITCARD', 'TRANSITCARD']",Clark St & Leland Ave,-87.66729086637497,"{'ios': 'https://chi.lft.to/lastmile_qr_scan', 'android': 'https://chi.lft.to/lastmile_qr_scan'}",41.96708783918421,classic,[],,,,,,,,
205,a3b10f66-a135-11e9-9cda-0a87ae2ba916,a3b10f66-a135-11e9-9cda-0a87ae2ba916,16903,False,529,False,11,True,"['KEY', 'CREDITCARD', 'TRANSITCARD']",Cicero Ave & Lake St,-87.745261,"{'ios': 'https://chi.lft.to/lastmile_qr_scan', 'android': 'https://chi.lft.to/lastmile_qr_scan'}",41.886841,classic,[],,,,,,,,
206,a3a46896-a135-11e9-9cda-0a87ae2ba916,a3a46896-a135-11e9-9cda-0a87ae2ba916,TA1305000030,False,51,False,43,True,"['KEY', 'CREDITCARD', 'TRANSITCARD']",Clark St & Randolph St,-87.63188991,"{'ios': 'https://chi.lft.to/lastmile_qr_scan', 'android': 'https://chi.lft.to/lastmile_qr_scan'}",41.884576228,classic,[],,,,,,,,
207,a3aa7373-a135-11e9-9cda-0a87ae2ba916,a3aa7373-a135-11e9-9cda-0a87ae2ba916,TA1309000018,False,314,False,15,True,"['KEY', 'CREDITCARD', 'TRANSITCARD']",Ravenswood Ave & Berteau Ave,-87.673567,"{'ios': 'https://chi.lft.to/lastmile_qr_scan', 'android': 'https://chi.lft.to/lastmile_qr_scan'}",41.957921,classic,[],,,,,,,,
208,a3b35885-a135-11e9-9cda-0a87ae2ba916,a3b35885-a135-11e9-9cda-0a87ae2ba916,16010,False,619,False,11,True,"['KEY', 'CREDITCARD', 'TRANSITCARD']",Keystone Ave & Fullerton Ave,-87.72785,"{'ios': 'https://chi.lft.to/lastmile_qr_scan', 'android': 'https://chi.lft.to/lastmile_qr_scan'}",41.92459,classic,[],,,,,,,,
209,a3a4f46b-a135-11e9-9cda-0a87ae2ba916,a3a4f46b-a135-11e9-9cda-0a87ae2ba916,13042,False,85,False,23,True,"['KEY', 'CREDITCARD', 'TRANSITCARD']",Michigan Ave & Oak St,-87.62377664,"{'ios': 'https://chi.lft.to/lastmile_qr_scan', 'android': 'https://chi.lft.to/lastmile_qr_scan'}",41.90096039,classic,[],,,,,,,,
210,a3a5af44-a135-11e9-9cda-0a87ae2ba916,a3a5af44-a135-11e9-9cda-0a87ae2ba916,13081,False,122,False,15,True,"['KEY', 'CREDITCARD', 'TRANSITCARD']",Ogden Ave & Congress Pkwy,-87.67328,"{'ios': 'https://chi.lft.to/lastmile_qr_scan', 'android': 'https://chi.lft.to/lastmile_qr_scan'}",41.87501,classic,[],,,,,,,,
211,a3a39301-a135-11e9-9cda-0a87ae2ba916,a3a39301-a135-11e9-9cda-0a87ae2ba916,KA1503000068,False,9,False,15,True,"['KEY', 'CREDITCARD', 'TRANSITCARD']",Leavitt St & Archer Ave,-87.6806044594,"{'ios': 'https://chi.lft.to/lastmile_qr_scan', 'android': 'https://chi.lft.to/lastmile_qr_scan'}",41.82879201994,classic,[],,,,,,,,
212,a3a4d069-a135-11e9-9cda-0a87ae2ba916,a3a4d069-a135-11e9-9cda-0a87ae2ba916,13138,False,75,False,51,True,"['KEY', 'CREDITCARD', 'TRANSITCARD']",Canal St & Jackson Blvd,-87.639366,"{'ios': 'https://chi.lft.to/lastmile_qr_scan', 'android': 'https://chi.lft.to/lastmile_qr_scan'}",41.877245,classic,[],,,,,,,,
213,a3aca790-a135-11e9-9cda-0a87ae2ba916,a3aca790-a135-11e9-9cda-0a87ae2ba916,15664,False,376,False,27,True,"['KEY', 'CREDITCARD', 'TRANSITCARD']",Artesian Ave & Hubbard St,-87.6878660917282,"{'ios': 'https://chi.lft.to/lastmile_qr_scan', 'android': 'https://chi.lft.to/lastmile_qr_scan'}",41.889704926440814,classic,[],,,,,,,,
214,a3a61a0b-a135-11e9-9cda-0a87ae2ba916,a3a61a0b-a135-11e9-9cda-0a87ae2ba916,13191,False,143,False,15,True,"['KEY', 'CREDITCARD', 'TRANSITCARD']",Sedgwick St & Webster Ave,-87.638888,"{'ios': 'https://chi.lft.to/lastmile_qr_scan', 'android': 'https://chi.lft.to/lastmile_qr_scan'}",41.922167,classic,[],,,,,,,,
215,a3a6fcac-a135-11e9-9cda-0a87ae2ba916,a3a6fcac-a135-11e9-9cda-0a87ae2ba916,TA1307000127,False,165,False,23,True,"['KEY', 'CREDITCARD', 'TRANSITCARD']",Clark St & Grace St,-87.659172,"{'ios': 'https://chi.lft.to/lastmile_qr_scan', 'android': 'https://chi.lft.to/lastmile_qr_scan'}",41.95078,classic,[],,,,,,,,
216,a3acd5b1-a135-11e9-9cda-0a87ae2ba916,a3acd5b1-a135-11e9-9cda-0a87ae2ba916,KA1503000055,False,388,False,11,True,"['KEY', 'CREDITCARD', 'TRANSITCARD']",Halsted St & 63rd St,-87.6446208145,"{'ios': 'https://chi.lft.to/lastmile_qr_scan', 'android': 'https://chi.lft.to/lastmile_qr_scan'}",41.77938114228,classic,[],,,,,,,,
217,a3b2f698-a135-11e9-9cda-0a87ae2ba916,a3b2f698-a135-11e9-9cda-0a87ae2ba916,600,False,600,False,15,True,"['KEY', 'CREDITCARD', 'TRANSITCARD']",Dodge Ave & Church St,-87.698224,"{'ios': 'https://chi.lft.to/lastmile_qr_scan', 'android': 'https://chi.lft.to/lastmile_qr_scan'}",42.048308,classic,[],35,,,,,,,
218,a3a3f5e9-a135-11e9-9cda-0a87ae2ba916,a3a3f5e9-a135-11e9-9cda-0a87ae2ba916,13290,False,29,False,15,True,"['KEY', 'CREDITCARD', 'TRANSITCARD']",Noble St & Milwaukee Ave,-87.6626,"{'ios': 'https://chi.lft.to/lastmile_qr_scan', 'android': 'https://chi.lft.to/lastmile_qr_scan'}",41.90068,classic,[],,,,,,,,
219,a3b0f0b6-a135-11e9-9cda-0a87ae2ba916,a3b0f0b6-a135-11e9-9cda-0a87ae2ba916,523,False,523,False,15,True,"['KEY', 'CREDITCARD', 'TRANSITCARD']",Eastlake Ter & Howard St,-87.66430288553238,"{'ios': 'https://chi.lft.to/lastmile_qr_scan', 'android': 'https://chi.lft.to/lastmile_qr_scan'}",42.01920250193227,classic,[],,,,,,,,
220,a3af624c-a135-11e9-9cda-0a87ae2ba916,a3af624c-a135-11e9-9cda-0a87ae2ba916,15585,False,468,False,11,True,"['KEY', 'CREDITCARD', 'TRANSITCARD']",Budlong Woods Library,-87.6964225611,"{'ios': 'https://chi.lft.to/lastmile_qr_scan', 'android': 'https://chi.lft.to/lastmile_qr_scan'}",41.98366470886,classic,[],,,,,,,,
221,a3afc347-a135-11e9-9cda-0a87ae2ba916,a3afc347-a135-11e9-9cda-0a87ae2ba916,15628,False,487,False,19,True,"['KEY', 'CREDITCARD', 'TRANSITCARD']",California Ave & Byron St,-87.698051113,"{'ios': 'https://chi.lft.to/lastmile_qr_scan', 'android': 'https://chi.lft.to/lastmile_qr_scan'}",41.95216219326,classic,[],,,,,,,,
222,a3aa10ca-a135-11e9-9cda-0a87ae2ba916,a3aa10ca-a135-11e9-9cda-0a87ae2ba916,13108,False,295,False,19,True,"['KEY', 'CREDITCARD', 'TRANSITCARD']",Broadway & Argyle St,-87.65966,"{'ios': 'https://chi.lft.to/lastmile_qr_scan', 'android': 'https://chi.lft.to/lastmile_qr_scan'}",41.973815,classic,[],,,,,,,,
223,a3a44ec7-a135-11e9-9cda-0a87ae2ba916,a3a44ec7-a135-11e9-9cda-0a87ae2ba916,TA1306000011,False,46,False,19,True,"['KEY', 'CREDITCARD', 'TRANSITCARD']",Wells St & Walton St,-87.63443007,"{'ios': 'https://chi.lft.to/lastmile_qr_scan', 'android': 'https://chi.lft.to/lastmile_qr_scan'}",41.89993001,classic,[],,,,,,,,
224,a3af2216-a135-11e9-9cda-0a87ae2ba916,a3af2216-a135-11e9-9cda-0a87ae2ba916,KA1504000155,False,456,False,11,True,"['KEY', 'CREDITCARD', 'TRANSITCARD']",2112 W Peterson Ave,-87.683593,"{'ios': 'https://chi.lft.to/lastmile_qr_scan', 'android': 'https://chi.lft.to/lastmile_qr_scan'}",41.991178,classic,[],,,,,,,,
225,a3ac7978-a135-11e9-9cda-0a87ae2ba916,a3ac7978-a135-11e9-9cda-0a87ae2ba916,KA1503000040,False,366,False,11,True,"['KEY', 'CREDITCARD', 'TRANSITCARD']",Loomis St & Archer Ave,-87.6574349533,"{'ios': 'https://chi.lft.to/lastmile_qr_scan', 'android': 'https://chi.lft.to/lastmile_qr_scan'}",41.84163253965,classic,[],,,,,,,,
226,22afe78c-e8f7-4a80-969e-7ddeafdf49da,22afe78c-e8f7-4a80-969e-7ddeafdf49da,20125,False,725,False,15,True,"['KEY', 'CREDITCARD', 'TRANSITCARD']",Halsted St & 104th St,-87.6424241065979,"{'ios': 'https://chi.lft.to/lastmile_qr_scan', 'android': 'https://chi.lft.to/lastmile_qr_scan'}",41.70513978893236,classic,[],,,,,,,,
227,a3ac83bc-a135-11e9-9cda-0a87ae2ba916,a3ac83bc-a135-11e9-9cda-0a87ae2ba916,15442,False,368,False,15,True,"['KEY', 'CREDITCARD', 'TRANSITCARD']",Ashland Ave & Archer Ave,-87.6656098589,"{'ios': 'https://chi.lft.to/lastmile_qr_scan', 'android': 'https://chi.lft.to/lastmile_qr_scan'}",41.83920868403,classic,[],,,,,,,,
228,a3ac2671-a135-11e9-9cda-0a87ae2ba916,a3ac2671-a135-11e9-9cda-0a87ae2ba916,TA1309000061,False,349,False,15,True,"['KEY', 'CREDITCARD', 'TRANSITCARD']",Halsted St & Wrightwood Ave,-87.649077,"{'ios': 'https://chi.lft.to/lastmile_qr_scan', 'android': 'https://chi.lft.to/lastmile_qr_scan'}",41.929143,classic,[],,,,,,,,
229,a3a41526-a135-11e9-9cda-0a87ae2ba916,a3a41526-a135-11e9-9cda-0a87ae2ba916,13022,False,35,False,47,True,"['KEY', 'CREDITCARD', 'TRANSITCARD']",Streeter Dr & Grand Ave,-87.612043,"{'ios': 'https://chi.lft.to/lastmile_qr_scan', 'android': 'https://chi.lft.to/lastmile_qr_scan'}",41.892278,classic,[],,,,,,,,
230,a3a5a48b-a135-11e9-9cda-0a87ae2ba916,a3a5a48b-a135-11e9-9cda-0a87ae2ba916,13075,False,120,False,19,True,"['KEY', 'CREDITCARD', 'TRANSITCARD']",Wentworth Ave & Cermak Rd,-87.63193130493164,"{'ios': 'https://chi.lft.to/lastmile_qr_scan', 'android': 'https://chi.lft.to/lastmile_qr_scan'}",41.85308455741279,classic,[],,,,,,,,
231,a3b02ef1-a135-11e9-9cda-0a87ae2ba916,a3b02ef1-a135-11e9-9cda-0a87ae2ba916,15652,False,508,False,15,True,"['KEY', 'CREDITCARD', 'TRANSITCARD']",Central Park Ave & North Ave,-87.7166319516,"{'ios': 'https://chi.lft.to/lastmile_qr_scan', 'android': 'https://chi.lft.to/lastmile_qr_scan'}",41.90965687563,classic,[],,,,,,,,
232,a3b00055-a135-11e9-9cda-0a87ae2ba916,a3b00055-a135-11e9-9cda-0a87ae2ba916,15643,False,499,False,15,True,"['KEY', 'CREDITCARD', 'TRANSITCARD']",Kosciuszko Park,-87.7237773635,"{'ios': 'https://chi.lft.to/lastmile_qr_scan', 'android': 'https://chi.lft.to/lastmile_qr_scan'}",41.93058537138,classic,[],,,,,,,,
233,a3b1efd6-a135-11e9-9cda-0a87ae2ba916,a3b1efd6-a135-11e9-9cda-0a87ae2ba916,549,False,549,False,11,True,"['KEY', 'CREDITCARD', 'TRANSITCARD']",Marshfield Ave & 44th St,-87.666589,"{'ios': 'https://chi.lft.to/lastmile_qr_scan', 'android': 'https://chi.lft.to/lastmile_qr_scan'}",41.813996,classic,[],,,,,,,,
234,1e7e4cf3-a16b-4cb7-9ead-fdd71e07ea77,1e7e4cf3-a16b-4cb7-9ead-fdd71e07ea77,20237,False,741,False,15,True,"['KEY', 'CREDITCARD', 'TRANSITCARD']",Yates Blvd & 93rd St,-87.5662761926651,"{'ios': 'https://chi.lft.to/lastmile_qr_scan', 'android': 'https://chi.lft.to/lastmile_qr_scan'}",41.726166390245105,classic,[],,,,,,,,
235,a3af956e-a135-11e9-9cda-0a87ae2ba916,a3af956e-a135-11e9-9cda-0a87ae2ba916,KA1504000093,False,478,False,15,True,"['KEY', 'CREDITCARD', 'TRANSITCARD']",Rockwell St & Eastwood Ave,-87.6936384935,"{'ios': 'https://chi.lft.to/lastmile_qr_scan', 'android': 'https://chi.lft.to/lastmile_qr_scan'}",41.96590013976,classic,[],,,,,,,,
236,a3afb917-a135-11e9-9cda-0a87ae2ba916,a3afb917-a135-11e9-9cda-0a87ae2ba916,KA1504000096,False,485,False,15,True,"['KEY', 'CREDITCARD', 'TRANSITCARD']",Sawyer Ave & Irving Park Rd,-87.7093107999,"{'ios': 'https://chi.lft.to/lastmile_qr_scan', 'android': 'https://chi.lft.to/lastmile_qr_scan'}",41.95358617895,classic,[],,,,,,,,
237,a3a5d8db-a135-11e9-9cda-0a87ae2ba916,a3a5d8db-a135-11e9-9cda-0a87ae2ba916,13136,False,130,False,19,True,"['KEY', 'CREDITCARD', 'TRANSITCARD']",Damen Ave & Division St,-87.678435,"{'ios': 'https://chi.lft.to/lastmile_qr_scan', 'android': 'https://chi.lft.to/lastmile_qr_scan'}",41.903266,classic,[],,,,,,,,
238,a3a49288-a135-11e9-9cda-0a87ae2ba916,a3a49288-a135-11e9-9cda-0a87ae2ba916,TA1305000002,False,59,False,23,True,"['KEY', 'CREDITCARD', 'TRANSITCARD']",Wabash Ave & Roosevelt Rd,-87.625961,"{'ios': 'https://chi.lft.to/lastmile_qr_scan', 'android': 'https://chi.lft.to/lastmile_qr_scan'}",41.867227,classic,[],,,,,,,,
239,a3adbedf-a135-11e9-9cda-0a87ae2ba916,a3adbedf-a135-11e9-9cda-0a87ae2ba916,15682,False,435,False,11,True,"['KEY', 'CREDITCARD', 'TRANSITCARD']",Kedzie Ave & Roosevelt Rd,-87.7064961757,"{'ios': 'https://chi.lft.to/lastmile_qr_scan', 'android': 'https://chi.lft.to/lastmile_qr_scan'}",41.86649278172,classic,[],,,,,,,,
240,a3b0eb93-a135-11e9-9cda-0a87ae2ba916,a3b0eb93-a135-11e9-9cda-0a87ae2ba916,16806,False,522,False,11,True,"['KEY', 'CREDITCARD', 'TRANSITCARD']",Bosworth Ave & Howard St,-87.669563,"{'ios': 'https://chi.lft.to/lastmile_qr_scan', 'android': 'https://chi.lft.to/lastmile_qr_scan'}",42.019537,classic,[],,,,,,,,
241,625e37ea-24ea-4f13-9a54-6322466ec521,625e37ea-24ea-4f13-9a54-6322466ec521,20116,False,706,False,15,True,"['KEY', 'CREDITCARD', 'TRANSITCARD']",Dauphin Ave & 87th St,-87.60125756263733,"{'ios': 'https://chi.lft.to/lastmile_qr_scan', 'android': 'https://chi.lft.to/lastmile_qr_scan'}",41.73655902282214,classic,[],,,,,,,,
242,61695579-2f75-4090-a071-c76079b5fb5d,61695579-2f75-4090-a071-c76079b5fb5d,651,False,674,False,7,True,"['KEY', 'CREDITCARD', 'TRANSITCARD']",Michigan Ave & 71st St,-87.621748,"{'ios': 'https://chi.lft.to/lastmile_qr_scan', 'android': 'https://chi.lft.to/lastmile_qr_scan'}",41.765286,classic,[],,,,,,,,
243,6fd280b0-74de-4a89-947d-3be40afa079c,6fd280b0-74de-4a89-947d-3be40afa079c,20212,False,739,False,15,True,"['KEY', 'CREDITCARD', 'TRANSITCARD']",Altgeld Gardens,-87.59880065917969,"{'ios': 'https://chi.lft.to/lastmile_qr_scan', 'android': 'https://chi.lft.to/lastmile_qr_scan'}",41.656665529673724,classic,[],,,,,,,,
244,a3a45e3b-a135-11e9-9cda-0a87ae2ba916,a3a45e3b-a135-11e9-9cda-0a87ae2ba916,TA1305000006,False,49,False,39,True,"['KEY', 'CREDITCARD', 'TRANSITCARD']",Dearborn St & Monroe St,-87.6295209193,"{'ios': 'https://chi.lft.to/lastmile_qr_scan', 'android': 'https://chi.lft.to/lastmile_qr_scan'}",41.881319815,classic,[],,,,,,,,
245,a3b2b92c-a135-11e9-9cda-0a87ae2ba916,a3b2b92c-a135-11e9-9cda-0a87ae2ba916,588,False,588,False,11,True,"['KEY', 'CREDITCARD', 'TRANSITCARD']",South Chicago Ave & 83rd St,-87.575225,"{'ios': 'https://chi.lft.to/lastmile_qr_scan', 'android': 'https://chi.lft.to/lastmile_qr_scan'}",41.743921,classic,[],,,,,,,,
246,a3b42a3e-a135-11e9-9cda-0a87ae2ba916,a3b42a3e-a135-11e9-9cda-0a87ae2ba916,18016,False,640,False,11,True,"['KEY', 'CREDITCARD', 'TRANSITCARD']",Bernard St & Elston Ave,-87.713949,"{'ios': 'https://chi.lft.to/lastmile_qr_scan', 'android': 'https://chi.lft.to/lastmile_qr_scan'}",41.949923,classic,[],,,,,,,,
247,a3b30b06-a135-11e9-9cda-0a87ae2ba916,a3b30b06-a135-11e9-9cda-0a87ae2ba916,604,False,604,False,15,True,"['KEY', 'CREDITCARD', 'TRANSITCARD']",Sheridan Rd & Noyes St (NU),-87.677432,"{'ios': 'https://chi.lft.to/lastmile_qr_scan', 'android': 'https://chi.lft.to/lastmile_qr_scan'}",42.058239,classic,[],35,,,,,,,
248,a3a46e71-a135-11e9-9cda-0a87ae2ba916,a3a46e71-a135-11e9-9cda-0a87ae2ba916,TA1305000011,False,52,False,35,True,"['KEY', 'CREDITCARD', 'TRANSITCARD']",Michigan Ave & Lake St,-87.624117,"{'ios': 'https://chi.lft.to/lastmile_qr_scan', 'android': 'https://chi.lft.to/lastmile_qr_scan'}",41.886024,classic,[],,,,,,,,
249,a3a378ca-a135-11e9-9cda-0a87ae2ba916,a3a378ca-a135-11e9-9cda-0a87ae2ba916,15545,False,4,False,23,True,"['KEY', 'CREDITCARD', 'TRANSITCARD']",Burnham Harbor,-87.61379152536392,"{'ios': 'https://chi.lft.to/lastmile_qr_scan', 'android': 'https://chi.lft.to/lastmile_qr_scan'}",41.85741178707404,classic,[],,,,,,,,
250,a3b3968b-a135-11e9-9cda-0a87ae2ba916,a3b3968b-a135-11e9-9cda-0a87ae2ba916,632,False,632,False,15,True,"['KEY', 'CREDITCARD', 'TRANSITCARD']",Clark St & Newport St,-87.654678,"{'ios': 'https://chi.lft.to/lastmile_qr_scan', 'android': 'https://chi.lft.to/lastmile_qr_scan'}",41.94454,classic,[],,,,,,,,
251,a3b453f2-a135-11e9-9cda-0a87ae2ba916,a3b453f2-a135-11e9-9cda-0a87ae2ba916,18025,False,648,False,7,True,"['KEY', 'CREDITCARD', 'TRANSITCARD']",Carpenter St & 63rd St,-87.650919,"{'ios': 'https://chi.lft.to/lastmile_qr_scan', 'android': 'https://chi.lft.to/lastmile_qr_scan'}",41.77987,classic,[],,,,,,,,
252,a77136ee-060b-433b-88d0-ec74af1ef7ad,a77136ee-060b-433b-88d0-ec74af1ef7ad,20127,False,711,False,15,True,"['KEY', 'CREDITCARD', 'TRANSITCARD']",Halsted St & 111th St,-87.64261186122894,"{'ios': 'https://chi.lft.to/lastmile_qr_scan', 'android': 'https://chi.lft.to/lastmile_qr_scan'}",41.69226255589166,classic,[],,,,,,,,
253,a3b46866-a135-11e9-9cda-0a87ae2ba916,a3b46866-a135-11e9-9cda-0a87ae2ba916,652,False,652,False,11,True,"['KEY', 'CREDITCARD', 'TRANSITCARD']",Rhodes Ave & 71st St,-87.611726,"{'ios': 'https://chi.lft.to/lastmile_qr_scan', 'android': 'https://chi.lft.to/lastmile_qr_scan'}",41.766,classic,[],,,,,,,,
254,a3af5804-a135-11e9-9cda-0a87ae2ba916,a3af5804-a135-11e9-9cda-0a87ae2ba916,RP-006,False,466,False,11,True,"['KEY', 'CREDITCARD', 'TRANSITCARD']",Ridge Blvd & Touhy Ave,-87.6829126443,"{'ios': 'https://chi.lft.to/lastmile_qr_scan', 'android': 'https://chi.lft.to/lastmile_qr_scan'}",42.01213227742,classic,[],,,,,,,,
255,a3a6e359-a135-11e9-9cda-0a87ae2ba916,a3a6e359-a135-11e9-9cda-0a87ae2ba916,13257,False,160,False,15,True,"['KEY', 'CREDITCARD', 'TRANSITCARD']",Campbell Ave & North Ave,-87.689556,"{'ios': 'https://chi.lft.to/lastmile_qr_scan', 'android': 'https://chi.lft.to/lastmile_qr_scan'}",41.910535,classic,[],,,,,,,,
256,a3a6e866-a135-11e9-9cda-0a87ae2ba916,a3a6e866-a135-11e9-9cda-0a87ae2ba916,15530,False,161,False,23,True,"['KEY', 'CREDITCARD', 'TRANSITCARD']",Rush St & Superior St,-87.6259080327,"{'ios': 'https://chi.lft.to/lastmile_qr_scan', 'android': 'https://chi.lft.to/lastmile_qr_scan'}",41.89576474564,classic,[],,,,,,,,
257,a3b1ff34-a135-11e9-9cda-0a87ae2ba916,a3b1ff34-a135-11e9-9cda-0a87ae2ba916,16937,False,552,False,11,True,"['KEY', 'CREDITCARD', 'TRANSITCARD']",Ashland Ave & McDowell Ave,-87.66454,"{'ios': 'https://chi.lft.to/lastmile_qr_scan', 'android': 'https://chi.lft.to/lastmile_qr_scan'}",41.80887,classic,[],,,,,,,,
258,a3a88a6d-a135-11e9-9cda-0a87ae2ba916,a3a88a6d-a135-11e9-9cda-0a87ae2ba916,13249,False,246,False,11,True,"['KEY', 'CREDITCARD', 'TRANSITCARD']",Ashland Ave & Belle Plaine Ave,-87.668835,"{'ios': 'https://chi.lft.to/lastmile_qr_scan', 'android': 'https://chi.lft.to/lastmile_qr_scan'}",41.956057,classic,[],,,,,,,,
259,a3a7af11-a135-11e9-9cda-0a87ae2ba916,a3a7af11-a135-11e9-9cda-0a87ae2ba916,13099,False,202,False,15,True,"['KEY', 'CREDITCARD', 'TRANSITCARD']",Halsted St & 18th St,-87.64599144458771,"{'ios': 'https://chi.lft.to/lastmile_qr_scan', 'android': 'https://chi.lft.to/lastmile_qr_scan'}",41.85750568031716,classic,[],,,,,,,,
260,a3b0d6ec-a135-11e9-9cda-0a87ae2ba916,a3b0d6ec-a135-11e9-9cda-0a87ae2ba916,517,False,517,False,11,True,"['KEY', 'CREDITCARD', 'TRANSITCARD']",Clark St & Jarvis Ave,-87.675005,"{'ios': 'https://chi.lft.to/lastmile_qr_scan', 'android': 'https://chi.lft.to/lastmile_qr_scan'}",42.015963,classic,[],,,,,,,,
261,a3a6f7a5-a135-11e9-9cda-0a87ae2ba916,a3a6f7a5-a135-11e9-9cda-0a87ae2ba916,TA1307000111,False,164,False,27,True,"['KEY', 'CREDITCARD', 'TRANSITCARD']",Franklin St & Lake St,-87.6355,"{'ios': 'https://chi.lft.to/lastmile_qr_scan', 'android': 'https://chi.lft.to/lastmile_qr_scan'}",41.885837,classic,[],,,,,,,,
262,a3a5b496-a135-11e9-9cda-0a87ae2ba916,a3a5b496-a135-11e9-9cda-0a87ae2ba916,13084,False,123,False,15,True,"['KEY', 'CREDITCARD', 'TRANSITCARD']",California Ave & Milwaukee Ave,-87.697153,"{'ios': 'https://chi.lft.to/lastmile_qr_scan', 'android': 'https://chi.lft.to/lastmile_qr_scan'}",41.922695,classic,[],,,,,,,,
263,a3b21de7-a135-11e9-9cda-0a87ae2ba916,a3b21de7-a135-11e9-9cda-0a87ae2ba916,16943,False,558,False,11,True,"['KEY', 'CREDITCARD', 'TRANSITCARD']",Ashland Ave & Garfield Blvd,-87.664429,"{'ios': 'https://chi.lft.to/lastmile_qr_scan', 'android': 'https://chi.lft.to/lastmile_qr_scan'}",41.792822,classic,[],,,,,,,,
264,a3ad7b51-a135-11e9-9cda-0a87ae2ba916,a3ad7b51-a135-11e9-9cda-0a87ae2ba916,KA1503000075,False,422,False,11,True,"['KEY', 'CREDITCARD', 'TRANSITCARD']",DuSable Museum,-87.6078521774,"{'ios': 'https://chi.lft.to/lastmile_qr_scan', 'android': 'https://chi.lft.to/lastmile_qr_scan'}",41.79156801058,classic,[],,,,,,,,
265,9e5ce0b6-198f-48fa-9363-64ab5ec2b222,9e5ce0b6-198f-48fa-9363-64ab5ec2b222,20106,False,737,False,23,True,"['KEY', 'CREDITCARD', 'TRANSITCARD']",Chicago State University,-87.60829567909241,"{'ios': 'https://chi.lft.to/lastmile_qr_scan', 'android': 'https://chi.lft.to/lastmile_qr_scan'}",41.71896342165455,classic,[],,,,,,,,
266,a3aa4f80-a135-11e9-9cda-0a87ae2ba916,a3aa4f80-a135-11e9-9cda-0a87ae2ba916,TA1309000030,False,307,False,15,True,"['KEY', 'CREDITCARD', 'TRANSITCARD']",Southport Ave & Clybourn Ave,-87.663712,"{'ios': 'https://chi.lft.to/lastmile_qr_scan', 'android': 'https://chi.lft.to/lastmile_qr_scan'}",41.920771,classic,[],,,,,,,,
267,a3b241df-a135-11e9-9cda-0a87ae2ba916,a3b241df-a135-11e9-9cda-0a87ae2ba916,16950,False,565,False,7,True,"['KEY', 'CREDITCARD', 'TRANSITCARD']",Ashland Ave & 66th St,-87.663815,"{'ios': 'https://chi.lft.to/lastmile_qr_scan', 'android': 'https://chi.lft.to/lastmile_qr_scan'}",41.774074,classic,[],,,,,,,,
268,a3a4ea00-a135-11e9-9cda-0a87ae2ba916,a3a4ea00-a135-11e9-9cda-0a87ae2ba916,TA1306000010,False,81,False,39,True,"['KEY', 'CREDITCARD', 'TRANSITCARD']",Daley Center Plaza,-87.629634,"{'ios': 'https://chi.lft.to/lastmile_qr_scan', 'android': 'https://chi.lft.to/lastmile_qr_scan'}",41.884241,classic,[],,,,,,,,
269,a3b26084-a135-11e9-9cda-0a87ae2ba916,a3b26084-a135-11e9-9cda-0a87ae2ba916,571,False,571,False,11,True,"['KEY', 'CREDITCARD', 'TRANSITCARD']",Vernon Ave & 75th St,-87.614138,"{'ios': 'https://chi.lft.to/lastmile_qr_scan', 'android': 'https://chi.lft.to/lastmile_qr_scan'}",41.758361,classic,[],,,,,,,,
270,a3b4afb6-a135-11e9-9cda-0a87ae2ba916,a3b4afb6-a135-11e9-9cda-0a87ae2ba916,18069,False,666,False,15,True,"['KEY', 'CREDITCARD', 'TRANSITCARD']",Cherry Ave & Blackhawk St,-87.655618,"{'ios': 'https://chi.lft.to/lastmile_qr_scan', 'android': 'https://chi.lft.to/lastmile_qr_scan'}",41.907221,classic,[],,,,,,,,
271,a3adce47-a135-11e9-9cda-0a87ae2ba916,a3adce47-a135-11e9-9cda-0a87ae2ba916,15685,False,438,False,15,True,"['KEY', 'CREDITCARD', 'TRANSITCARD']",Central Park Ave & Ogden Ave,-87.71511733531952,"{'ios': 'https://chi.lft.to/lastmile_qr_scan', 'android': 'https://chi.lft.to/lastmile_qr_scan'}",41.854063503874464,classic,[],,,,,,,,
272,a3a405a1-a135-11e9-9cda-0a87ae2ba916,a3a405a1-a135-11e9-9cda-0a87ae2ba916,TA1306000025,False,32,False,19,True,"['KEY', 'CREDITCARD', 'TRANSITCARD']",Racine Ave & Congress Pkwy,-87.65703,"{'ios': 'https://chi.lft.to/lastmile_qr_scan', 'android': 'https://chi.lft.to/lastmile_qr_scan'}",41.87464,classic,[],,,,,,,,
273,7dc58bb9-24de-4544-9a12-c3975139370f,7dc58bb9-24de-4544-9a12-c3975139370f,20114,False,742,False,15,True,"['KEY', 'CREDITCARD', 'TRANSITCARD']",Doty Ave & 111th St,-87.59871482849121,"{'ios': 'https://chi.lft.to/lastmile_qr_scan', 'android': 'https://chi.lft.to/lastmile_qr_scan'}",41.69501044938143,classic,[],,,,,,,,
274,a3a5ce97-a135-11e9-9cda-0a87ae2ba916,a3a5ce97-a135-11e9-9cda-0a87ae2ba916,13132,False,128,False,19,True,"['KEY', 'CREDITCARD', 'TRANSITCARD']",Damen Ave & Chicago Ave,-87.67722,"{'ios': 'https://chi.lft.to/lastmile_qr_scan', 'android': 'https://chi.lft.to/lastmile_qr_scan'}",41.895769,classic,[],,,,,,,,
275,6849c4e2-cffa-432b-8d83-5c0524594b4f,6849c4e2-cffa-432b-8d83-5c0524594b4f,20239,False,692,False,15,True,"['KEY', 'CREDITCARD', 'TRANSITCARD']",Marquette Ave & 89th St,-87.55834221839905,"{'ios': 'https://chi.lft.to/lastmile_qr_scan', 'android': 'https://chi.lft.to/lastmile_qr_scan'}",41.733668790714724,classic,[],,,,,,,,
276,a3a4c0df-a135-11e9-9cda-0a87ae2ba916,a3a4c0df-a135-11e9-9cda-0a87ae2ba916,SL-012,False,72,False,39,True,"['KEY', 'CREDITCARD', 'TRANSITCARD']",Wabash Ave & 16th St,-87.625813,"{'ios': 'https://chi.lft.to/lastmile_qr_scan', 'android': 'https://chi.lft.to/lastmile_qr_scan'}",41.860384,classic,[],,,,,,,,
277,a3a7e19b-a135-11e9-9cda-0a87ae2ba916,a3a7e19b-a135-11e9-9cda-0a87ae2ba916,TA1307000151,False,212,False,31,True,"['KEY', 'CREDITCARD', 'TRANSITCARD']",Wells St & Hubbard St,-87.634266,"{'ios': 'https://chi.lft.to/lastmile_qr_scan', 'android': 'https://chi.lft.to/lastmile_qr_scan'}",41.889906,classic,[],,,,,,,,
278,a3a4d588-a135-11e9-9cda-0a87ae2ba916,a3a4d588-a135-11e9-9cda-0a87ae2ba916,13300,False,76,False,39,True,"['KEY', 'CREDITCARD', 'TRANSITCARD']",DuSable Lake Shore Dr & Monroe St,-87.616743,"{'ios': 'https://chi.lft.to/lastmile_qr_scan', 'android': 'https://chi.lft.to/lastmile_qr_scan'}",41.880958,classic,[],,,,,,,,
279,ad9f8858-dc27-43ca-8fdc-78044b22f1fc,ad9f8858-dc27-43ca-8fdc-78044b22f1fc,20107,False,721,False,15,True,"['KEY', 'CREDITCARD', 'TRANSITCARD']",Walden Pkwy & 100th St,-87.66773343086243,"{'ios': 'https://chi.lft.to/lastmile_qr_scan', 'android': 'https://chi.lft.to/lastmile_qr_scan'}",41.71216410359803,classic,[],,,,,,,,
280,a3b372b1-a135-11e9-9cda-0a87ae2ba916,a3b372b1-a135-11e9-9cda-0a87ae2ba916,624,False,624,False,15,True,"['KEY', 'CREDITCARD', 'TRANSITCARD']",Dearborn St & Van Buren St,-87.629155,"{'ios': 'https://chi.lft.to/lastmile_qr_scan', 'android': 'https://chi.lft.to/lastmile_qr_scan'}",41.876268,classic,[],,,,,,,,
281,a3af9064-a135-11e9-9cda-0a87ae2ba916,a3af9064-a135-11e9-9cda-0a87ae2ba916,KA1504000127,False,477,False,11,True,"['KEY', 'CREDITCARD', 'TRANSITCARD']",Manor Ave & Leland Ave,-87.700825,"{'ios': 'https://chi.lft.to/lastmile_qr_scan', 'android': 'https://chi.lft.to/lastmile_qr_scan'}",41.965875,classic,[],,,,,,,,
282,a3a57527-a135-11e9-9cda-0a87ae2ba916,a3a57527-a135-11e9-9cda-0a87ae2ba916,TA1307000062,False,111,False,27,True,"['KEY', 'CREDITCARD', 'TRANSITCARD']",Sedgwick St & Huron St,-87.638437,"{'ios': 'https://chi.lft.to/lastmile_qr_scan', 'android': 'https://chi.lft.to/lastmile_qr_scan'}",41.894666,classic,[],,,,,,,,
283,a3a4cb42-a135-11e9-9cda-0a87ae2ba916,a3a4cb42-a135-11e9-9cda-0a87ae2ba916,13265,False,74,False,23,True,"['KEY', 'CREDITCARD', 'TRANSITCARD']",Kingsbury St & Erie St,-87.64169722795485,"{'ios': 'https://chi.lft.to/lastmile_qr_scan', 'android': 'https://chi.lft.to/lastmile_qr_scan'}",41.89380805624359,classic,[],,,,,,,,
284,a3b38c3f-a135-11e9-9cda-0a87ae2ba916,a3b38c3f-a135-11e9-9cda-0a87ae2ba916,KA1706005015,False,630,False,15,True,"['KEY', 'CREDITCARD', 'TRANSITCARD']",Kildare Ave & Montrose Ave,-87.73569,"{'ios': 'https://chi.lft.to/lastmile_qr_scan', 'android': 'https://chi.lft.to/lastmile_qr_scan'}",41.96108,classic,[],,,,,,,,
285,a3a3c174-a135-11e9-9cda-0a87ae2ba916,a3a3c174-a135-11e9-9cda-0a87ae2ba916,13139,False,19,False,15,True,"['KEY', 'CREDITCARD', 'TRANSITCARD']",Throop St & Taylor St,-87.659141,"{'ios': 'https://chi.lft.to/lastmile_qr_scan', 'android': 'https://chi.lft.to/lastmile_qr_scan'}",41.868968,classic,[],,,,,,,,
286,a3a7258b-a135-11e9-9cda-0a87ae2ba916,a3a7258b-a135-11e9-9cda-0a87ae2ba916,13338,False,173,False,15,True,"['KEY', 'CREDITCARD', 'TRANSITCARD']",Mies van der Rohe Way & Chicago Ave,-87.62175768613815,"{'ios': 'https://chi.lft.to/lastmile_qr_scan', 'android': 'https://chi.lft.to/lastmile_qr_scan'}",41.896944626370825,classic,[],,,,,,,,
287,34dc92b5-7cb7-4536-856b-46644d31b48c,34dc92b5-7cb7-4536-856b-46644d31b48c,20210,False,714,False,15,True,"['KEY', 'CREDITCARD', 'TRANSITCARD']",State St & 123rd St,-87.62258648872375,"{'ios': 'https://chi.lft.to/lastmile_qr_scan', 'android': 'https://chi.lft.to/lastmile_qr_scan'}",41.67064383687979,classic,[],,,,,,,,
288,bbf9b599-1873-4133-b670-a0ef9e5c429c,bbf9b599-1873-4133-b670-a0ef9e5c429c,20234,False,683,False,15,True,"['KEY', 'CREDITCARD', 'TRANSITCARD']",Ashland Ave & 78th St,-87.66369938850403,"{'ios': 'https://chi.lft.to/lastmile_qr_scan', 'android': 'https://chi.lft.to/lastmile_qr_scan'}",41.75220484941116,classic,[],,,,,,,,
289,ce334dea-c5ba-45ca-a52d-39dc161683b0,ce334dea-c5ba-45ca-a52d-39dc161683b0,20211,False,716,False,15,True,"['KEY', 'CREDITCARD', 'TRANSITCARD']",Eberhart Ave & 131st St,-87.61071089698817,"{'ios': 'https://chi.lft.to/lastmile_qr_scan', 'android': 'https://chi.lft.to/lastmile_qr_scan'}",41.658413151101065,classic,[],,,,,,,,
290,a3b2dcf0-a135-11e9-9cda-0a87ae2ba916,a3b2dcf0-a135-11e9-9cda-0a87ae2ba916,595,False,595,False,11,True,"['KEY', 'CREDITCARD', 'TRANSITCARD']",Wabash Ave & 87th St,-87.62264415621758,"{'ios': 'https://chi.lft.to/lastmile_qr_scan', 'android': 'https://chi.lft.to/lastmile_qr_scan'}",41.73655301831962,classic,[],,,,,,,,
291,a3b1db23-a135-11e9-9cda-0a87ae2ba916,a3b1db23-a135-11e9-9cda-0a87ae2ba916,545,False,545,False,11,True,"['KEY', 'CREDITCARD', 'TRANSITCARD']",Kostner Ave & Adams St,-87.735737,"{'ios': 'https://chi.lft.to/lastmile_qr_scan', 'android': 'https://chi.lft.to/lastmile_qr_scan'}",41.877917,classic,[],,,,,,,,
292,a3b4aa91-a135-11e9-9cda-0a87ae2ba916,a3b4aa91-a135-11e9-9cda-0a87ae2ba916,665,False,665,False,7,True,"['KEY', 'CREDITCARD', 'TRANSITCARD']",South Chicago Ave & Elliot Ave,-87.580046,"{'ios': 'https://chi.lft.to/lastmile_qr_scan', 'android': 'https://chi.lft.to/lastmile_qr_scan'}",41.747363,classic,[],,,,,,,,
293,a3a482fb-a135-11e9-9cda-0a87ae2ba916,a3a482fb-a135-11e9-9cda-0a87ae2ba916,TA1306000003,False,56,False,27,True,"['KEY', 'CREDITCARD', 'TRANSITCARD']",Desplaines St & Kinzie St,-87.6444478533,"{'ios': 'https://chi.lft.to/lastmile_qr_scan', 'android': 'https://chi.lft.to/lastmile_qr_scan'}",41.888716036,classic,[],,,,,,,,
294,a3a786ac-a135-11e9-9cda-0a87ae2ba916,a3a786ac-a135-11e9-9cda-0a87ae2ba916,TA1307000131,False,194,False,19,True,"['KEY', 'CREDITCARD', 'TRANSITCARD']",Wabash Ave & Wacker Pl,-87.62603,"{'ios': 'https://chi.lft.to/lastmile_qr_scan', 'android': 'https://chi.lft.to/lastmile_qr_scan'}",41.886875,classic,[],,,,,,,,
295,a3afa4c3-a135-11e9-9cda-0a87ae2ba916,a3afa4c3-a135-11e9-9cda-0a87ae2ba916,15622,False,481,False,15,True,"['KEY', 'CREDITCARD', 'TRANSITCARD']",California Ave & Montrose Ave,-87.695439,"{'ios': 'https://chi.lft.to/lastmile_qr_scan', 'android': 'https://chi.lft.to/lastmile_qr_scan'}",41.961068,classic,[],,,,,,,,
296,a3b0dc1f-a135-11e9-9cda-0a87ae2ba916,a3b0dc1f-a135-11e9-9cda-0a87ae2ba916,518,False,518,False,11,True,"['KEY', 'CREDITCARD', 'TRANSITCARD']",Conservatory Dr & Lake St,-87.716866,"{'ios': 'https://chi.lft.to/lastmile_qr_scan', 'android': 'https://chi.lft.to/lastmile_qr_scan'}",41.885502,classic,[],,,,,,,,
297,a3a5eb69-a135-11e9-9cda-0a87ae2ba916,a3a5eb69-a135-11e9-9cda-0a87ae2ba916,KA1503000043,False,133,False,31,True,"['KEY', 'CREDITCARD', 'TRANSITCARD']",Kingsbury St & Kinzie St,-87.6385057718,"{'ios': 'https://chi.lft.to/lastmile_qr_scan', 'android': 'https://chi.lft.to/lastmile_qr_scan'}",41.88917683258,classic,[],,,,,,,,
298,a3a59915-a135-11e9-9cda-0a87ae2ba916,a3a59915-a135-11e9-9cda-0a87ae2ba916,TA1307000038,False,118,False,19,True,"['KEY', 'CREDITCARD', 'TRANSITCARD']",Sedgwick St & North Ave,-87.638677,"{'ios': 'https://chi.lft.to/lastmile_qr_scan', 'android': 'https://chi.lft.to/lastmile_qr_scan'}",41.911386,classic,[],,,,,,,,
299,a3a6d371-a135-11e9-9cda-0a87ae2ba916,a3a6d371-a135-11e9-9cda-0a87ae2ba916,TA1307000041,False,157,False,15,True,"['KEY', 'CREDITCARD', 'TRANSITCARD']",DuSable Lake Shore Dr & Wellington Ave,-87.63682901859283,"{'ios': 'https://chi.lft.to/lastmile_qr_scan', 'android': 'https://chi.lft.to/lastmile_qr_scan'}",41.9366884494997,classic,[],,,,,,,,
300,a3a453fa-a135-11e9-9cda-0a87ae2ba916,a3a453fa-a135-11e9-9cda-0a87ae2ba916,13050,False,47,False,31,True,"['KEY', 'CREDITCARD', 'TRANSITCARD']",State St & Kinzie St,-87.62707650661469,"{'ios': 'https://chi.lft.to/lastmile_qr_scan', 'android': 'https://chi.lft.to/lastmile_qr_scan'}",41.889375466631684,classic,[],,,,,,,,
301,a3a55b3e-a135-11e9-9cda-0a87ae2ba916,a3a55b3e-a135-11e9-9cda-0a87ae2ba916,TA1307000061,False,106,False,27,True,"['KEY', 'CREDITCARD', 'TRANSITCARD']",State St & Pearson St,-87.628722,"{'ios': 'https://chi.lft.to/lastmile_qr_scan', 'android': 'https://chi.lft.to/lastmile_qr_scan'}",41.897448,classic,[],,,,,,,,
302,a3af1767-a135-11e9-9cda-0a87ae2ba916,a3af1767-a135-11e9-9cda-0a87ae2ba916,15571,False,454,False,23,True,"['KEY', 'CREDITCARD', 'TRANSITCARD']",Broadway & Granville Ave,-87.6602845349,"{'ios': 'https://chi.lft.to/lastmile_qr_scan', 'android': 'https://chi.lft.to/lastmile_qr_scan'}",41.9947796884,classic,[],,,,,,,,
303,4b4b0d88-80e0-4ef9-a8d1-cdd6a16722f9,4b4b0d88-80e0-4ef9-a8d1-cdd6a16722f9,20226,False,697,False,15,True,"['KEY', 'CREDITCARD', 'TRANSITCARD']",Oglesby Ave & 100th St,-87.56584167480469,"{'ios': 'https://chi.lft.to/lastmile_qr_scan', 'android': 'https://chi.lft.to/lastmile_qr_scan'}",41.713397484422444,classic,[],,,,,,,,
304,a3ad523f-a135-11e9-9cda-0a87ae2ba916,a3ad523f-a135-11e9-9cda-0a87ae2ba916,15550,False,414,False,15,True,"['KEY', 'CREDITCARD', 'TRANSITCARD']",Canal St & Taylor St,-87.639474,"{'ios': 'https://chi.lft.to/lastmile_qr_scan', 'android': 'https://chi.lft.to/lastmile_qr_scan'}",41.870257,classic,[],,,,,,,,
305,a3af6c2f-a135-11e9-9cda-0a87ae2ba916,a3af6c2f-a135-11e9-9cda-0a87ae2ba916,KA1504000161,False,469,False,15,True,"['KEY', 'CREDITCARD', 'TRANSITCARD']",St. Louis Ave & Balmoral Ave,-87.7161149615,"{'ios': 'https://chi.lft.to/lastmile_qr_scan', 'android': 'https://chi.lft.to/lastmile_qr_scan'}",41.98039423475,classic,[],,,,,,,,
306,a3ad0490-a135-11e9-9cda-0a87ae2ba916,a3ad0490-a135-11e9-9cda-0a87ae2ba916,KA1503000049,False,398,False,15,True,"['KEY', 'CREDITCARD', 'TRANSITCARD']",Rainbow Beach,-87.54938625,"{'ios': 'https://chi.lft.to/lastmile_qr_scan', 'android': 'https://chi.lft.to/lastmile_qr_scan'}",41.75787144829,classic,[],,,,,,,,
307,a3ac9834-a135-11e9-9cda-0a87ae2ba916,a3ac9834-a135-11e9-9cda-0a87ae2ba916,KA1504000114,False,373,False,11,True,"['KEY', 'CREDITCARD', 'TRANSITCARD']",Kedzie Ave & Chicago Ave,-87.7061278837,"{'ios': 'https://chi.lft.to/lastmile_qr_scan', 'android': 'https://chi.lft.to/lastmile_qr_scan'}",41.89546530305,classic,[],,,,,,,,
308,a3a7a4fc-a135-11e9-9cda-0a87ae2ba916,a3a7a4fc-a135-11e9-9cda-0a87ae2ba916,TA1308000007,False,200,False,11,True,"['KEY', 'CREDITCARD', 'TRANSITCARD']",MLK Jr Dr & 47th St,-87.616279,"{'ios': 'https://chi.lft.to/lastmile_qr_scan', 'android': 'https://chi.lft.to/lastmile_qr_scan'}",41.809851,classic,[],,,,,,,,
309,a3a9da3b-a135-11e9-9cda-0a87ae2ba916,a3a9da3b-a135-11e9-9cda-0a87ae2ba916,13432,False,285,False,19,True,"['KEY', 'CREDITCARD', 'TRANSITCARD']",Wood St & Hubbard St,-87.671473,"{'ios': 'https://chi.lft.to/lastmile_qr_scan', 'android': 'https://chi.lft.to/lastmile_qr_scan'}",41.889899,classic,[],,,,,,,,
310,a3ac2b9c-a135-11e9-9cda-0a87ae2ba916,a3ac2b9c-a135-11e9-9cda-0a87ae2ba916,13247,False,350,False,15,True,"['KEY', 'CREDITCARD', 'TRANSITCARD']",Ashland Ave & Chicago Ave,-87.6677280664444,"{'ios': 'https://chi.lft.to/lastmile_qr_scan', 'android': 'https://chi.lft.to/lastmile_qr_scan'}",41.89595435734305,classic,[],,,,,,,,
311,a3a706c0-a135-11e9-9cda-0a87ae2ba916,a3a706c0-a135-11e9-9cda-0a87ae2ba916,TA1307000066,False,167,False,7,True,"['KEY', 'CREDITCARD', 'TRANSITCARD']",Damen Ave & Coulter St,-87.67564,"{'ios': 'https://chi.lft.to/lastmile_qr_scan', 'android': 'https://chi.lft.to/lastmile_qr_scan'}",41.8492,classic,[],,,,,,,,
312,a3a78bc0-a135-11e9-9cda-0a87ae2ba916,a3a78bc0-a135-11e9-9cda-0a87ae2ba916,13263,False,195,False,55,True,"['KEY', 'CREDITCARD', 'TRANSITCARD']",Columbus Dr & Randolph St,-87.619521,"{'ios': 'https://chi.lft.to/lastmile_qr_scan', 'android': 'https://chi.lft.to/lastmile_qr_scan'}",41.884728,classic,[],,,,,,,,
313,a3a40ad8-a135-11e9-9cda-0a87ae2ba916,a3a40ad8-a135-11e9-9cda-0a87ae2ba916,TA1305000035,False,33,False,27,True,"['KEY', 'CREDITCARD', 'TRANSITCARD']",State St & Van Buren St,-87.627844,"{'ios': 'https://chi.lft.to/lastmile_qr_scan', 'android': 'https://chi.lft.to/lastmile_qr_scan'}",41.877181,classic,[],,,,,,,,
